"SchoolName","SchoolSystem","SchoolGrade","SchoolGradeLetter","SchoolGradeNumber","GrowtStatus","GradeLevel","FreeReduced","Latitude","Longitude"
"Alamance-Burlington Middle College","Alamance-Burlington Schools","A - 86","A","86","NA","42.9","51","36.06546700","-79.35885600"
"Alexander Wilson Elementary","Alamance-Burlington Schools","C - 69","C","69","Exceeded","63.2","46","36.03020859","-79.34599304"
"Altamahaw Ossipee Elem","Alamance-Burlington Schools","C - 69","C","69","Met","68.4","44","36.17947769","-79.51058197"
"Broadview Middle","Alamance-Burlington Schools","D - 45","D","45","Exceeded","33.6","92","36.08834110","-79.39788625"
"Career Technical Education Center","Alamance-Burlington Schools","I - NA","I","","NA","NA","NA","36.09312616","-79.38525505"
"Highland Elementary","Alamance-Burlington Schools","B - 74","B","74","Exceeded","70.8","35","36.05866600","-79.51782200"
"Highland Elementary","Harnett County Schools","C - 65","C","65","Met","61.4","44","36.05866600","-79.51782200"
"E M Yoder Elementary","Alamance-Burlington Schools","B - 73","B","73","Exceeded","68.1","41","36.10058594","-79.27547455"
"Eastern Alamance High","Alamance-Burlington Schools","C - 66","C","66","Met","53.8","37","36.11481857","-79.30274963"
"Eastlawn Elementary","Alamance-Burlington Schools","F - 31","F","31","NotMet","21.5","99","36.10227203","-79.40727234"
"Edwin M Holt Elementary","Alamance-Burlington Schools","C - 62","C","62","NotMet","60.2","36","36.02154160","-79.48852539"
"Elon Elementary","Alamance-Burlington Schools","C - 60","C","60","Met","54.8","35","36.10462570","-79.49929047"
"B Everett Jordan Elem","Alamance-Burlington Schools","C - 58","C","58","Met","54.0","57","35.94042969","-79.32706451"
"Garrett Elementary","Alamance-Burlington Schools","C - 63","C","63","Met","60.6","56","36.05860211","-79.29547682"
"Graham High","Alamance-Burlington Schools","D - 50","D","50","NotMet","31.1","70","36.07537000","-79.38137000"
"Graham Middle","Alamance-Burlington Schools","D - 43","D","43","Met","33.4","81","36.06584930","-79.39473724"
"Grove Park Elementary","Alamance-Burlington Schools","D - 45","D","45","Exceeded","34.8","81","36.08028700","-79.46028100"
"Hawfields Middle","Alamance-Burlington Schools","C - 61","C","61","Exceeded","54.1","52","36.06113434","-79.29648590"
"Harvey R Newlin Elementary","Alamance-Burlington Schools","D - 40","D","40","Met","28.8","91","36.07310486","-79.42060852"
"Haw River Elementary","Alamance-Burlington Schools","D - 42","D","42","Met","32.3","94","35.53934479","-79.18541718"
"Hillcrest Elementary","Alamance-Burlington Schools","D - 50","D","50","Met","41.7","85","36.10313797","-79.46486664"
"Hugh M Cummings High","Alamance-Burlington Schools","C - 60","C","60","Exceeded","40.7","80","36.08970642","-79.39584351"
"Marvin B Smith Elementary","Alamance-Burlington Schools","B - 75","B","75","Met","72.7","43","36.07720900","-79.47904900"
"North Graham Elementary","Alamance-Burlington Schools","D - 53","D","53","Met","46.4","90","36.07706644","-79.37752761"
"Pleasant Grove Elementary","Alamance-Burlington Schools","C - 60","C","60","Exceeded","53.5","84","36.21739960","-79.30560303"
"R Homer Andrews Elementary","Alamance-Burlington Schools","D - 42","D","42","NotMet","37.4","95","36.09441376","-79.38269043"
"Ray Street Academy","Alamance-Burlington Schools","NA - NA","N","","NA","10.4","90","36.06147300","-79.39704100"
"South Graham Elementary","Alamance-Burlington Schools","D - 45","D","45","Met","36.2","82","36.05249405","-79.39332581"
"South Mebane Elementary","Alamance-Burlington Schools","B - 72","B","72","Exceeded","67.0","43","36.08994573","-79.27265257"
"Southern High","Alamance-Burlington Schools","C - 64","C","64","NotMet","51.5","37","36.00368500","-79.40663147"
"Southern Middle","Alamance-Burlington Schools","C - 60","C","60","Met","54.6","40","36.00345053","-79.40973423"
"Southern Middle","Moore County Schools","D - 50","D","50","NotMet","47.5","59","36.00345053","-79.40973423"
"Southern Middle","Person County Schools","D - 50","D","50","NotMet","47.7","66","36.00345053","-79.40973423"
"Sylvan Elementary","Alamance-Burlington Schools","C - 58","C","58","Met","53.6","61","35.88022600","-79.43762900"
"Turrentine Middle","Alamance-Burlington Schools","C - 57","C","57","Exceeded","49.7","66","36.09043100","-79.46307300"
"Walter M Williams High","Alamance-Burlington Schools","C - 69","C","69","Exceeded","51.1","53","36.08847800","-79.45433000"
"Western Alamance High","Alamance-Burlington Schools","C - 63","C","63","NotMet","51.1","26","36.15285110","-79.49657440"
"Western Middle","Alamance-Burlington Schools","C - 66","C","66","Met","61.2","33","36.16202927","-79.50206757"
"Woodlawn Middle","Alamance-Burlington Schools","B - 70","B","70","Exceeded","65.1","45","36.11440279","-79.30497587"
"River Mill Academy","Charter Schools","B - 72","B","72","Met","68.6","24","36.04377747","-79.39378357"
"Clover Garden","Charter Schools","B - 71","B","71","Met","65.7","33","36.18719864","-79.46985626"
"The Hawbridge School","Charter Schools","B - 81","B","81","Met","80.5","2","35.94662476","-79.31838226"
"Alexander Central High","Alexander County Schools","B - 76","B","76","Exceeded","61.4","46","35.91609573","-81.18909454"
"Bethlehem Elementary","Alexander County Schools","C - 66","C","66","Met","64.8","40","35.83692551","-81.31214905"
"East Alexander Middle","Alexander County Schools","C - 60","C","60","Met","54.3","64","35.93207169","-81.12237549"
"Ellendale Elementary","Alexander County Schools","C - 67","C","67","NotMet","67.1","57","35.92804718","-81.27897644"
"Hiddenite Elementary","Alexander County Schools","C - 62","C","62","Met","58.3","69","35.90700900","-81.08918700"
"Stony Point Elementary","Alexander County Schools","C - 63","C","63","Met","59.9","66","35.86976624","-81.04784393"
"Sugar Loaf Elementary","Alexander County Schools","B - 74","B","74","Met","71.6","52","35.92245102","-81.22122192"
"Taylorsville Elementary","Alexander County Schools","C - 57","C","57","NotMet","56.8","78","35.92026852","-81.18232436"
"West Alexander Middle","Alexander County Schools","C - 65","C","65","Exceeded","58.7","44","35.87210083","-81.31343079"
"Wittenburg Elementary","Alexander County Schools","C - 63","C","63","Met","60.0","59","35.82859802","-81.24192810"
"Alleghany High","Alleghany County Schools","B - 71","B","71","Met","59.2","34","36.51379013","-81.12286377"
"Glade Creek Elementary","Alleghany County Schools","B - 70","B","70","Met","66.4","77","36.50082700","-80.97921700"
"Piney Creek Elementary","Alleghany County Schools","B - 80","B","80","Met","79.3","48","36.54735500","-81.30408400"
"Sparta Elementary","Alleghany County Schools","C - 64","C","64","Exceeded","58.6","83","36.51010132","-81.12545776"
"Anson Co. Early College High","Anson County Schools","B - 70","B","70","Met","56.4","62","34.99991477","-80.21188304"
"Anson Academy","Anson County Schools","NA - NA","N","","NA","<5","75","35.23410849","-80.42837955"
"Anson High School","Anson County Schools","D - 50","D","50","NotMet","18.5","75","34.97742081","-80.10313416"
"Ansonville Elementary","Anson County Schools","B - 70","B","70","Exceeded","65.2","66","35.10540771","-80.10589600"
"Anson Middle","Anson County Schools","D - 42","D","42","NotMet","37.2","80","34.98961258","-80.08820343"
"Wadesboro Primary","Anson County Schools","F - 35","F","35","NotMet","27.7","82","34.94198227","-80.05770111"
"Lilesville Elementary","Anson County Schools","D - 43","D","43","Met","34.4","77","34.96478654","-79.98977400"
"Morven Elementary","Anson County Schools","D - 45","D","45","Met","35.1","93","34.88082123","-80.00518799"
"Peachland-Polkton Elem","Anson County Schools","C - 59","C","59","Met","55.2","65","34.99442291","-80.23014832"
"Wadesboro Elementary","Anson County Schools","F - 36","F","36","Met","26.3","92","34.96192932","-80.07920074"
"Anson New Tech High","Anson County Schools","D - 46","D","46","NotMet","21.4","72","34.97742081","-80.10313416"
"Ashe County High","Ashe County Schools","C - 68","C","68","NotMet","58.8","56","36.42065811","-81.47225952"
"Ashe County Middle","Ashe County Schools","C - 66","C","66","Met","63.7","80","36.46369815","-81.51006147"
"Blue Ridge Elementary","Ashe County Schools","C - 65","C","65","Exceeded","58.3","71","36.46002486","-81.53259337"
"Mountain View Elementary","Ashe County Schools","B - 72","B","72","Exceeded","67.1","68","36.43519230","-81.43984728"
"Mountain View Elementary","Catawba County Schools","B - 74","B","74","Exceeded","70.1","43","36.43519230","-81.43984728"
"Mountain View Elementary","Wilkes County Schools","C - 66","C","66","Exceeded","61.5","53","36.43519230","-81.43984728"
"Westwood Elementary","Ashe County Schools","B - 72","B","72","Met","69.1","60","36.42065811","-81.47225952"
"Avery County High","Avery County Schools","B - 70","B","70","NotMet","51.2","54","36.06900406","-81.91894531"
"Banner Elk Elementary","Avery County Schools","C - 64","C","64","Met","60.0","49","36.14834681","-81.85717888"
"Cranberry Middle","Avery County Schools","B - 80","B","80","Exceeded","77.0","67","35.53934479","-79.18541718"
"Crossnore Elementary","Avery County Schools","B - 83","B","83","Exceeded","80.4","52","36.02575645","-81.92405909"
"Avery Middle","Avery County Schools","C - 64","C","64","Exceeded","58.0","62","36.06703568","-81.91600037"
"Freedom Trail Elementary","Avery County Schools","C - 68","C","68","Exceeded","62.9","76","36.14533268","-81.96592838"
"Newland Elementary","Avery County Schools","C - 61","C","61","Met","55.8","72","36.08245850","-81.92253876"
"Riverside Elementary","Avery County Schools","C - 61","C","61","Met","55.8","69","35.99006271","-82.01944733"
"Blue Ridge Academy","Avery County Schools","NA - NA","N","","NA","11.8","76","36.06788658","-81.91616736"
"Avery High STEM Academy","Avery County Schools","B - 80","B","80","NotMet","78.8","40","36.06900406","-81.91894531"
"Avery High Viking Academy","Avery County Schools","F - 32","F","32","NotMet","23.0","60","36.06900406","-81.91894531"
"Grandfather Academy","Charter Schools","F - 23","F","23","NA","25.6","100","36.17497635","-81.84248352"
"Williams Academy","Charter Schools","D - 46","D","46","Met","34.0","93","36.02470016","-81.92810059"
"Eastern Elementary","Beaufort County Schools","I - NA","I","","NA","NA","80","35.54490745","-77.03638293"
"Eastern Elementary","Pitt County Schools","C - 67","C","67","Exceeded","61.5","67","35.54490745","-77.03638293"
"Bath Elementary","Beaufort County Schools","C - 65","C","65","NotMet","66.8","40","35.47524445","-76.81138985"
"B C Ed Tech Center","Beaufort County Schools","NA - NA","N","","NA","<5","100","35.55155665","-77.05631912"
"Beaufort Co Early College High","Beaufort County Schools","A - 93","A","93","Met","94.0","49","35.53228833","-76.96688689"
"Chocowinity Middle","Beaufort County Schools","C - 59","C","59","NotMet","57.5","73","35.50940171","-77.10259862"
"Chocowinity Primary","Beaufort County Schools","B - 81","B","81","Met","81.6","78","35.49890690","-77.09309153"
"John C Tayloe Elementary","Beaufort County Schools","C - 62","C","62","Exceeded","55.7","76","35.55804826","-77.06339814"
"John Small Elementary","Beaufort County Schools","D - 49","D","49","NotMet","46.7","70","35.53934479","-79.18541718"
"Northeast Elementary","Beaufort County Schools","C - 56","C","56","Exceeded","48.8","73","35.53974889","-76.70980588"
"Northeast Elementary","Lenoir County Public Schools","F - 34","F","34","NotMet","25.7","85","35.53974889","-76.70980588"
"Northeast Elementary","Wayne County Public Schools","C - 57","C","57","NotMet","54.9","57","35.53974889","-76.70980588"
"Northside High","Beaufort County Schools","C - 62","C","62","NotMet","47.2","52","35.53621575","-76.72789469"
"Northside High","Onslow County Schools","B - 75","B","75","Exceeded","60.1","41","35.53621575","-76.72789469"
"P S Jones Middle","Beaufort County Schools","D - 54","D","54","Exceeded","44.7","71","35.53934479","-79.18541718"
"Southside High","Beaufort County Schools","C - 62","C","62","Met","42.1","71","35.44556046","-77.08185577"
"S W Snowden Elementary","Beaufort County Schools","F - 38","F","38","Met","29.4","99","35.30649729","-76.79155022"
"Washington High","Beaufort County Schools","C - 57","C","57","NotMet","39.1","58","35.55585489","-77.01276138"
"Washington Montessori","Charter Schools","C - 65","C","65","Met","61.9","0","35.54078221","-76.97795771"
"Bertie Early College High","Bertie County Schools","B - 80","B","80","Met","76.4","59","36.03403911","-77.01312281"
"Bertie High","Bertie County Schools","D - 47","D","47","Met","21.3","74","36.05154522","-76.97089948"
"Bertie Middle","Bertie County Schools","D - 44","D","44","Met","36.0","79","36.04841374","-76.96921706"
"Aulander Elementary","Bertie County Schools","D - 47","D","47","Met","38.6","93","36.21464431","-77.10533313"
"West Bertie Elementary","Bertie County Schools","D - 46","D","46","Met","38.0","96","36.15794711","-77.21574493"
"Colerain Elementary","Bertie County Schools","D - 44","D","44","Met","37.4","98","36.20085038","-76.77103333"
"Windsor Elementary","Bertie County Schools","D - 50","D","50","Met","43.6","93","35.98780441","-76.92049408"
"Bertie STEM High","Bertie County Schools","A - 86","A","86","Met","78.7","53","36.05154522","-76.97089948"
"Heritage Collegiate Leadership Academy","Charter Schools","F - 38","F","38","NotMet","31.0","88","35.97985715","-76.95423961"
"B T Washington Primary","Bladen County Schools","D - 45","D","45","NotMet","40.1","83","34.50072415","-78.66635531"
"Bladenboro Middle","Bladen County Schools","D - 43","D","43","NotMet","36.7","53","34.53121014","-78.79751869"
"Bladenboro Primary","Bladen County Schools","C - 60","C","60","Met","57.5","68","34.61205460","-78.98581445"
"Bladen Lakes Primary","Bladen County Schools","D - 54","D","54","Met","49.0","62","34.70956497","-78.59536797"
"Clarkton School of Discovery","Bladen County Schools","C - 58","C","58","NotMet","57.0","38","34.49414738","-78.65235284"
"Dublin Primary","Bladen County Schools","C - 66","C","66","Met","62.7","62","34.65494379","-78.72017317"
"East Arcadia Elementary","Bladen County Schools","D - 43","D","43","Met","33.2","57","34.42462586","-78.34961995"
"East Bladen High","Bladen County Schools","D - 51","D","51","NotMet","31.8","46","34.58104759","-78.53065901"
"Elizabethtown Middle","Bladen County Schools","F - 31","F","31","NotMet","26.2","65","34.61254947","-78.61430302"
"Elizabethtown Primary","Bladen County Schools","D - 51","D","51","Met","43.4","80","34.61254947","-78.61430302"
"Plain View Primary","Bladen County Schools","D - 48","D","48","NotMet","43.0","78","34.73940253","-78.84132318"
"Tar Heel Middle","Bladen County Schools","D - 45","D","45","Met","37.6","55","34.74391937","-78.80639648"
"West Bladen High","Bladen County Schools","C - 55","C","55","NotMet","35.8","41","34.63835701","-78.73888761"
"Paul R Brown Leadership Academy","Charter Schools","F - 31","F","31","Met","17.8","99","34.67866516","-78.55782318"
"Belville Elementary","Brunswick County Schools","C - 61","C","61","NotMet","59.3","91","34.67866516","-78.55782318"
"Bolivia Elementary","Brunswick County Schools","C - 59","C","59","NotMet","60.2","100","34.07007980","-78.14485931"
"Brunswick County Early College","Brunswick County Schools","A - 95","A","95","Exceeded","94.1","42","34.03814502","-78.22989553"
"Brunswick County Academy","Brunswick County Schools","NA - NA","N","","NA","10.3","100","34.03822708","-78.23850250"
"Cedar Grove Middle","Brunswick County Schools","D - 54","D","54","Met","48.6","100","33.96607208","-78.26799011"
"Jessie Mae Monroe Elementary","Brunswick County Schools","D - 46","D","46","NotMet","42.3","100","33.94743347","-78.54748535"
"Leland Middle","Brunswick County Schools","C - 55","C","55","Met","48.9","100","34.23540800","-78.03379000"
"Lincoln Elementary","Brunswick County Schools","C - 58","C","58","Exceeded","50.0","100","34.26123810","-78.04167175"
"Lincoln Elementary","Rockingham County Schools","C - 58","C","58","Exceeded","50.6","64","34.26123810","-78.04167175"
"North Brunswick High","Brunswick County Schools","C - 63","C","63","Met","44.0","59","34.24069595","-78.02338409"
"Shallotte Middle","Brunswick County Schools","C - 60","C","60","Met","56.5","100","33.96372900","-78.38837400"
"South Brunswick High","Brunswick County Schools","B - 74","B","74","Exceeded","60.5","47","35.53934479","-79.18541718"
"South Brunswick Middle","Brunswick County Schools","C - 61","C","61","Met","55.2","85","35.53934479","-79.18541718"
"Southport Elementary","Brunswick County Schools","C - 58","C","58","NotMet","57.6","90","33.92516708","-78.03154755"
"Supply Elementary","Brunswick County Schools","D - 47","D","47","NotMet","44.3","100","34.02439100","-78.25886500"
"Town Creek Elementary","Brunswick County Schools","C - 55","C","55","NotMet","53.2","95","34.13965200","-78.08702000"
"Union Elementary","Brunswick County Schools","B - 75","B","75","Exceeded","71.8","99","33.95793533","-78.45925903"
"Union Elementary","Cleveland County Schools","C - 62","C","62","Met","56.5","72","33.95793533","-78.45925903"
"Union Elementary","Lincoln County Schools","B - 79","B","79","Exceeded","76.5","51","33.95793533","-78.45925903"
"Union Elementary","Robeson County Schools","C - 57","C","57","Exceeded","48.2","83","33.95793533","-78.45925903"
"Union Elementary","Sampson County Schools","B - 74","B","74","Exceeded","71.3","91","33.95793533","-78.45925903"
"Union Elementary","Union County Public Schools","B - 70","B","70","Met","67.1","62","33.95793533","-78.45925903"
"Virginia Williamson Elem","Brunswick County Schools","C - 63","C","63","Met","58.6","100","33.99412537","-78.23662567"
"Waccamaw","Brunswick County Schools","C - 64","C","64","Exceeded","58.7","100","34.06426102","-78.51679869"
"West Brunswick High","Brunswick County Schools","B - 74","B","74","Exceeded","59.8","54","33.98128128","-78.40981293"
"Charter Day School","Charter Schools","B - 70","B","70","NotMet","71.3","36","34.28311788","-78.13701734"
"South Brunswick Charter School","Charter Schools","I - NA","I","","NA","NA","50","33.92913818","-78.06934357"
"Community High School","Buncombe County Schools","NA - NA","N","","NA","14.3","87","35.60304642","-82.40444183"
"Reynolds High","Buncombe County Schools","B - 77","B","77","Met","67.0","41","35.55100076","-82.47486547"
"Reynolds Middle","Buncombe County Schools","C - 66","C","66","Exceeded","60.2","60","35.54748100","-82.47615800"
"Barnardsville Elementary","Buncombe County Schools","C - 67","C","67","Met","64.6","70","35.77506638","-82.45983887"
"Black Mountain Elementary","Buncombe County Schools","C - 62","C","62","NotMet","62.9","49","35.62036000","-82.31463902"
"Black Mountain Primary","Buncombe County Schools","B - 70","B","70","Met","66.8","54","35.62065100","-82.31758800"
"Early College","Buncombe County Schools","A - 91","A","91","Met","90.7","46","35.56778300","-82.55751800"
"Middle College","Buncombe County Schools","B - 74","B","74","NA","33.3","49","35.56778300","-82.55751800"
"Candler Elementary","Buncombe County Schools","C - 59","C","59","NotMet","56.5","65","35.53819275","-82.70090485"
"Cane Creek Middle","Buncombe County Schools","B - 77","B","77","Exceeded","74.6","40","35.48290484","-82.43647031"
"Bell Elementary","Buncombe County Schools","B - 73","B","73","Met","71.6","58","35.59029579","-82.49076225"
"Owen High","Buncombe County Schools","C - 67","C","67","NotMet","54.9","46","35.61837387","-82.37337494"
"Owen Middle","Buncombe County Schools","C - 60","C","60","Met","55.0","64","35.60603333","-82.37410736"
"Erwin High","Buncombe County Schools","C - 62","C","62","Met","46.0","62","35.61835000","-82.62733400"
"Erwin Middle","Buncombe County Schools","D - 52","D","52","NotMet","49.1","70","35.61897464","-82.62239434"
"Erwin Middle","Rowan-Salisbury Schools","D - 42","D","42","NotMet","39.9","51","35.61897464","-82.62239434"
"Emma Elementary","Buncombe County Schools","D - 51","D","51","Exceeded","42.3","87","35.59765309","-82.59433039"
"Enka High","Buncombe County Schools","C - 63","C","63","NotMet","53.7","52","35.53015800","-82.66473300"
"Fairview Elementary","Buncombe County Schools","B - 70","B","70","Met","66.6","47","35.52311707","-82.41090393"
"Fairview Elementary","Guilford County Schools","D - 42","D","42","Exceeded","29.6","100","35.52311707","-82.41090393"
"Fairview Elementary","Jackson County Schools","C - 66","C","66","Exceeded","60.9","59","35.52311707","-82.41090393"
"Fairview Elementary","Nash-Rocky Mount Schools","I - NA","I","","NA","NA","100","35.52311707","-82.41090393"
"Fairview Elementary","Union County Public Schools","B - 75","B","75","Met","72.8","30","35.52311707","-82.41090393"
"Glen Arden Elementary","Buncombe County Schools","B - 76","B","76","Met","76.3","34","35.46961500","-82.49665800"
"Haw Creek Elementary","Buncombe County Schools","B - 70","B","70","Met","67.2","50","35.59500122","-82.50544739"
"Hominy Valley Elementary","Buncombe County Schools","B - 73","B","73","Met","70.1","46","35.53494600","-82.66316200"
"Johnston Elementary","Buncombe County Schools","D - 46","D","46","Met","38.3","98","35.58745265","-82.61998437"
"Leicester Elementary","Buncombe County Schools","C - 61","C","61","Met","57.1","69","35.65877151","-82.70667267"
"North Buncombe Elementary","Buncombe County Schools","C - 65","C","65","Met","59.4","60","35.74546051","-82.56866455"
"North Buncombe High","Buncombe County Schools","B - 75","B","75","Met","62.3","39","35.73894882","-82.55749512"
"North Buncombe Middle","Buncombe County Schools","C - 66","C","66","NotMet","65.6","50","35.71588621","-82.55997933"
"North Windy Ridge Intermediate","Buncombe County Schools","C - 67","C","67","Met","63.2","54","35.72555161","-82.54848480"
"Oakley Elementary","Buncombe County Schools","C - 56","C","56","Met","49.9","77","35.56348400","-82.51234400"
"Pisgah Elementary","Buncombe County Schools","B - 80","B","80","Met","80.2","68","35.50355911","-82.73101044"
"Enka Middle","Buncombe County Schools","C - 58","C","58","NotMet","57.7","64","35.55237961","-82.66469574"
"Sand Hill-Venable Elem","Buncombe County Schools","C - 58","C","58","NotMet","57.4","73","35.55507705","-82.63919704"
"Avery's Creek Elementary","Buncombe County Schools","C - 61","C","61","Met","56.8","65","35.47557168","-82.57970363"
"Williams Elementary","Buncombe County Schools","C - 66","C","66","Met","63.0","73","35.60456467","-82.40236664"
"Roberson High","Buncombe County Schools","B - 73","B","73","NotMet","66.2","38","35.48690400","-82.53464500"
"Valley Springs Middle","Buncombe County Schools","B - 74","B","74","Exceeded","68.1","51","35.48146851","-82.54228413"
"Estes Elementary","Buncombe County Schools","B - 71","B","71","Met","70.7","52","35.48585800","-82.54046600"
"Weaverville Elementary","Buncombe County Schools","B - 70","B","70","Met","68.6","49","35.68965149","-82.56304932"
"Weaverville Primary","Buncombe County Schools","I - NA","I","","NA","NA","46","35.69497299","-82.56094360"
"West Buncombe Elementary","Buncombe County Schools","B - 71","B","71","Exceeded","67.0","68","35.61919000","-82.62128400"
"Woodfin Elementary","Buncombe County Schools","C - 68","C","68","Met","64.5","92","35.63250700","-82.58539500"
"Koontz Intermediate","Buncombe County Schools","C - 63","C","63","NotMet","62.5","49","35.48472673","-82.53867790"
"Eblen Intermediate","Buncombe County Schools","C - 56","C","56","Met","52.0","75","35.61888800","-82.61913200"
"Nesbitt Discovery Academy","Buncombe County Schools","A - 94","A","94","Met",">95","28","35.60681500","-82.58369400"
"Asheville High","Asheville City Schools","C - 66","C","66","NotMet","57.0","44","35.57239500","-82.55238300"
"Hall Fletcher Elementary","Asheville City Schools","D - 51","D","51","NotMet","46.0","78","35.57406600","-82.57448500"
"Isaac Dickson Elementary","Asheville City Schools","B - 75","B","75","Met","73.4","41","35.59796500","-82.56175200"
"Claxton Elementary","Asheville City Schools","C - 64","C","64","NotMet","67.0","42","35.60791300","-82.55287100"
"Claxton Elementary","Guilford County Schools","B - 73","B","73","Exceeded","69.3","31","35.60791300","-82.55287100"
"Ira B Jones Elementary","Asheville City Schools","B - 71","B","71","Met","68.0","40","35.63067245","-82.54977417"
"Asheville Middle","Asheville City Schools","C - 62","C","62","NotMet","62.7","52","35.58636475","-82.56187439"
"Vance Elementary","Asheville City Schools","B - 75","B","75","Met","75.2","49","35.57699900","-82.60063100"
"Vance Elementary","Wake County Schools","C - 60","C","60","NotMet","58.8","42","35.57699900","-82.60063100"
"School of Inquiry and Life Sciences","Asheville City Schools","A - 87","A","87","Exceeded","81.6","26","35.57239500","-82.55238300"
"Evergreen Community Charter","Charter Schools","B - 71","B","71","NotMet","72.4","39","35.60322500","-82.49853500"
"ArtSpace Charter School","Charter Schools","B - 73","B","73","Met","70.1","49","35.59466171","-82.42889404"
"Invest Collegiate - Imagine","Charter Schools","B - 72","B","72","NotMet","75.6","8","35.52594700","-82.60617000"
"The Franklin School of Innovation","Charter Schools","C - 69","C","69","NotMet","69.1","33","35.55392075","-82.61814880"
"Francine Delany New School","Charter Schools","B - 77","B","77","Exceeded","74.7","48","35.57354355","-82.59435272"
"Chesterfield Elementary","Burke County Schools","C - 57","C","57","Met","52.9","88","35.81056213","-81.66420746"
"Hallyburton Academy","Burke County Schools","NA - NA","N","","NA","19.2","89","35.75600052","-81.60431671"
"Burke Middle College","Burke County Schools","A - 99","A","99","NA","NA","39","35.72529984","-81.68273926"
"Drexel Elementary","Burke County Schools","C - 63","C","63","Exceeded","56.8","67","35.74967575","-81.60868835"
"East Burke High","Burke County Schools","C - 64","C","64","NotMet","53.5","56","35.72055817","-81.48190308"
"East Burke Middle","Burke County Schools","B - 70","B","70","Met","67.4","59","35.71586990","-81.46692657"
"Forest Hill Elementary","Burke County Schools","C - 68","C","68","Met","64.8","65","35.73225021","-81.70258331"
"Freedom High","Burke County Schools","C - 68","C","68","Met","58.3","58","35.74385829","-81.72240458"
"George Hildebrand Elementary","Burke County Schools","C - 63","C","63","Met","58.3","70","35.66469574","-81.53216553"
"Glen Alpine Elementary","Burke County Schools","B - 70","B","70","Met","67.0","73","35.72393036","-81.77876282"
"Heritage Middle","Burke County Schools","B - 71","B","71","Exceeded","66.0","54","35.75919342","-81.57875824"
"Heritage Middle","Wake County Schools","B - 83","B","83","Exceeded","81.5","17","35.75919342","-81.57875824"
"Hildebran Elementary","Burke County Schools","B - 73","B","73","Met","70.2","65","35.71380615","-81.42627716"
"Mountain Crest Elementary","Burke County Schools","C - 57","C","57","Exceeded","48.2","98","35.75379562","-81.67335510"
"Icard Elementary","Burke County Schools","C - 69","C","69","Exceeded","63.6","70","35.73029327","-81.46838379"
"Jimmy C Draughn High School","Burke County Schools","B - 73","B","73","NotMet","65.0","47","35.76710510","-81.54399872"
"Liberty Middle","Burke County Schools","C - 66","C","66","Met","65.1","50","35.70933558","-81.67174503"
"North Liberty","Burke County Schools","NA - NA","N","","NA","48.0","69","35.70956692","-81.67176984"
"Mull Elementary","Burke County Schools","C - 67","C","67","Exceeded","61.0","67","35.70484500","-81.66053000"
"Oak Hill Elementary","Burke County Schools","C - 65","C","65","Exceeded","58.2","59","35.77602386","-81.75662231"
"Oak Hill Elementary","Caldwell County Schools","D - 52","D","52","Met","45.7","57","35.77602386","-81.75662231"
"Oak Hill Elementary","Guilford County Schools","C - 57","C","57","Met","49.8","100","35.77602386","-81.75662231"
"Ray Childers Elementary","Burke County Schools","B - 76","B","76","Met","73.9","73","35.75047302","-81.42862701"
"Robert L. Patton High School","Burke County Schools","B - 73","B","73","Met","56.2","48","35.70165634","-81.66938782"
"Rutherford College Elem","Burke County Schools","B - 84","B","84","Met","83.2","53","35.75454700","-81.52348300"
"Salem Elementary","Burke County Schools","B - 72","B","72","Met","69.1","57","35.69450700","-81.70175900"
"Salem Elementary","Wake County Schools","B - 70","B","70","NotMet","72.9","26","35.69450700","-81.70175900"
"Table Rock Middle","Burke County Schools","C - 66","C","66","Exceeded","61.4","63","35.75374222","-81.76968384"
"Valdese Elementary","Burke County Schools","B - 72","B","72","Met","70.0","56","35.74227378","-81.56616054"
"W A Young Elementary","Burke County Schools","C - 61","C","61","Exceeded","53.6","72","35.71874619","-81.76640320"
"Walter R Johnson Middle","Burke County Schools","C - 64","C","64","Met","60.1","73","35.77965100","-81.69202400"
"New Dimensions","Charter Schools","C - 67","C","67","Exceeded","62.1","27","35.76855540","-81.69171542"
"A T Allen Elementary","Cabarrus County Schools","C - 58","C","58","NotMet","56.5","66","35.36270500","-80.51366400"
"Cox Mill High School","Cabarrus County Schools","B - 78","B","78","Met","70.8","20","35.36270500","-80.51366400"
"Bethel Elementary","Cabarrus County Schools","C - 56","C","56","Met","51.5","39","35.24195480","-80.53324127"
"Bethel Elementary","Haywood County Schools","B - 76","B","76","NotMet","80.1","56","35.24195480","-80.53324127"
"Bethel Elementary","Pitt County Schools","C - 55","C","55","Exceeded","45.8","64","35.24195480","-80.53324127"
"Bethel Elementary","Watauga County Schools","C - 62","C","62","Exceeded","56.0","59","35.24195480","-80.53324127"
"Beverly Hills Elementary","Cabarrus County Schools","C - 64","C","64","Met","59.3","68","35.43209400","-80.59631300"
"Central Cabarrus High","Cabarrus County Schools","C - 69","C","69","Met","53.7","51","35.36787361","-80.57645090"
"Coltrane-Webb Elementary","Cabarrus County Schools","C - 63","C","63","NotMet","62.9","52","35.41114435","-80.58480062"
"Harrisburg Elementary","Cabarrus County Schools","B - 78","B","78","Met","79.3","12","35.31885500","-80.64067000"
"Concord Middle","Cabarrus County Schools","F - 38","F","38","NotMet","33.4","72","35.41973877","-80.55341339"
"Concord High","Cabarrus County Schools","C - 59","C","59","NotMet","46.4","52","35.43238449","-80.58258820"
"J N Fries Magnet School","Cabarrus County Schools","A+ - 91","A","91","Exceeded","92.6","21","35.43238449","-80.58258820"
"Jay M Robinson High","Cabarrus County Schools","C - 69","C","69","Met","53.1","42","35.36156464","-80.66169739"
"Cabarrus Co Opportunity School","Cabarrus County Schools","NA - NA","N","","NA","NA","73","35.41202164","-80.59011841"
"C C Griffin Middle","Cabarrus County Schools","C - 55","C","55","Exceeded","45.8","61","35.30799866","-80.58809662"
"Cox Mill Elementary","Cabarrus County Schools","B - 84","B","84","Exceeded","82.7","8","35.39157093","-80.73032655"
"Harris Road Middle","Cabarrus County Schools","B - 81","B","81","Exceeded","76.5","18","35.43692017","-80.58078003"
"Carl A Furr Elementary","Cabarrus County Schools","C - 60","C","60","NotMet","58.0","50","35.37716675","-80.68569946"
"Mount Pleasant Elementary","Cabarrus County Schools","C - 69","C","69","Exceeded","63.6","40","35.91701126","-79.07080841"
"Mount Pleasant Elementary","Wilkes County Schools","C - 60","C","60","NotMet","58.2","45","35.91701126","-79.07080841"
"Mount Pleasant Middle","Cabarrus County Schools","C - 68","C","68","Exceeded","62.1","43","35.41198300","-80.43737700"
"Mount Pleasant High","Cabarrus County Schools","C - 68","C","68","Met","56.8","38","35.40673065","-80.48416901"
"Charles E Boger Elementary","Cabarrus County Schools","B - 71","B","71","Met","68.6","36","35.45442900","-80.66389400"
"Northwest Cabarrus High","Cabarrus County Schools","B - 72","B","72","Met","56.6","46","35.45211792","-80.66253662"
"Northwest Cabarrus Middle","Cabarrus County Schools","C - 61","C","61","Exceeded","54.0","52","35.45318797","-80.66420875"
"Royal Oaks Elementary","Cabarrus County Schools","D - 40","D","40","NotMet","33.1","98","35.46520615","-80.61323547"
"Rocky River Elementary","Cabarrus County Schools","D - 50","D","50","NotMet","46.3","65","35.34181500","-80.59854800"
"Rocky River Elementary","Mooresville City Schools","B - 82","B","82","NotMet","84.8","29","35.34181500","-80.59854800"
"Rocky River Elementary","Union County Public Schools","B - 76","B","76","Exceeded","73.0","61","35.34181500","-80.59854800"
"Pitts School Road Elementary","Cabarrus County Schools","B - 72","B","72","Met","69.2","32","35.34291400","-80.64672000"
"Hickory Ridge High","Cabarrus County Schools","B - 83","B","83","Exceeded","74.8","19","35.30670047","-80.63806258"
"Performance Learning Center","Cabarrus County Schools","C - 67","C","67","Met","40.2","49","35.36494000","-80.59401700"
"Performance Learning Center","Charlotte-Mecklenburg Schools","B - 71","B","71","Met","47.1","41","35.36494000","-80.59401700"
"W R Odell Elementary","Cabarrus County Schools","B - 78","B","78","Met","76.4","21","35.42873092","-80.73769055"
"Weddington Hills Elementary","Cabarrus County Schools","C - 66","C","66","Exceeded","61.0","66","35.39517975","-80.64841461"
"Winecoff Elementary","Cabarrus County Schools","D - 48","D","48","NotMet","45.2","72","35.40908432","-80.67467499"
"W M Irvin Elementary","Cabarrus County Schools","D - 50","D","50","NotMet","45.9","70","35.41809931","-80.55164449"
"Wolf Meadow Elementary","Cabarrus County Schools","C - 59","C","59","Exceeded","52.8","100","35.37625122","-80.62644958"
"Patriots Elementary","Cabarrus County Schools","B - 79","B","79","Exceeded","74.5","33","35.31179810","-80.59297943"
"Hickory Ridge Middle","Cabarrus County Schools","B - 72","B","72","Exceeded","67.6","21","35.30780420","-80.63731827"
"Cabarrus-Kannapolis Early Coll","Cabarrus County Schools","A - 89","A","89","Met","84.4","45","35.43801880","-80.65984344"
"Harold E. Winkler Middle","Cabarrus County Schools","C - 59","C","59","Exceeded","51.9","51","35.40908432","-80.67467499"
"A L Brown High","Kannapolis City Schools","C - 58","C","58","NotMet","40.5","61","35.49768448","-80.61750793"
"Forest Park Elementary","Forsyth County Schools","D - 40","D","40","NotMet","34.0","98","35.47896266","-80.60326964"
"Forest Park Elementary","Kannapolis City Schools","C - 63","C","63","Exceeded","55.4","68","35.47896266","-80.60326964"
"Fred L Wilson Elementary","Kannapolis City Schools","D - 45","D","45","Met","37.7","85","35.49689400","-80.64667500"
"Jackson Park Elementary","Kannapolis City Schools","D - 52","D","52","Met","45.2","78","35.50407400","-80.60285900"
"Kannapolis Intermediate","Kannapolis City Schools","D - 42","D","42","NotMet","39.9","77","35.49317932","-80.61555481"
"Kannapolis Middle","Kannapolis City Schools","D - 44","D","44","NotMet","37.9","73","35.46719700","-80.63887700"
"Shady Brook Elementary","Kannapolis City Schools","C - 58","C","58","Exceeded","51.4","75","35.47399100","-80.64130400"
"Woodrow Wilson Elementary","Kannapolis City Schools","D - 49","D","49","Met","42.6","85","35.50794220","-80.61851501"
"Carolina International School","Charter Schools","C - 59","C","59","NotMet","56.2","0","35.41218773","-80.73780589"
"Cabarrus Charter Academy","Charter Schools","B - 77","B","77","Exceeded","75.1","8","35.40908432","-80.67467499"
"A.C.E. Academy","Charter Schools","D - 44","D","44","Met","37.3","43","35.30806300","-80.67281300"
"Baton Elementary","Caldwell County Schools","C - 61","C","61","NotMet","59.2","69","35.30806300","-80.67281300"
"Caldwell Career Cen Mid. Coll.","Caldwell County Schools","B - 81","B","81","Met","73.6","39","35.85389055","-81.48199417"
"Gateway School","Caldwell County Schools","NA - NA","N","","NA","21.3","87","35.86413956","-81.36838531"
"Horizons Elementary","Caldwell County Schools","NA - NA","N","","NA","17.9","84","35.84504932","-81.48978598"
"Collettsville School","Caldwell County Schools","B - 70","B","70","Met","69.4","62","35.92872238","-81.67133331"
"Caldwell Early College","Caldwell County Schools","A+ - 90","A","90","Met","86.7","19","35.90436935","-81.52467346"
"Davenport A+ School","Caldwell County Schools","C - 67","C","67","Exceeded","60.7","68","35.91257259","-81.53953962"
"Dudley Shoals Elementary","Caldwell County Schools","B - 70","B","70","Exceeded","64.2","54","35.85591888","-81.39211273"
"Gamewell Elementary","Caldwell County Schools","C - 57","C","57","Met","51.3","71","35.86852603","-81.59669884"
"Gamewell Middle","Caldwell County Schools","D - 51","D","51","Met","45.4","79","35.87173843","-81.60076904"
"Granite Falls Middle","Caldwell County Schools","C - 65","C","65","Met","62.8","48","35.80007935","-81.43775940"
"Granite Falls Elementary","Caldwell County Schools","B - 72","B","72","Met","68.9","50","35.80662155","-81.43317413"
"Happy Valley Elementary","Caldwell County Schools","C - 63","C","63","Met","58.2","62","35.99546051","-81.55995178"
"Hibriten High","Caldwell County Schools","C - 66","C","66","NotMet","48.4","50","35.92528100","-81.49361400"
"Hudson Elementary","Caldwell County Schools","C - 64","C","64","Met","59.1","58","35.84956741","-81.48110199"
"Hudson Middle","Caldwell County Schools","C - 61","C","61","Met","58.0","55","35.84798000","-81.48027800"
"Kings Creek Elementary","Caldwell County Schools","C - 60","C","60","Met","57.7","68","35.99203873","-81.40056610"
"William Lenoir Middle","Caldwell County Schools","C - 67","C","67","Exceeded","59.7","61","36.22525714","-81.53135285"
"Lower Creek Elementary","Caldwell County Schools","B - 70","B","70","Met","66.9","43","35.53934479","-79.18541718"
"Oak Hill Elementary","Burke County Schools","C - 65","C","65","Exceeded","58.2","59","35.90162659","-81.41865540"
"Oak Hill Elementary","Caldwell County Schools","D - 52","D","52","Met","45.7","57","35.90162659","-81.41865540"
"Oak Hill Elementary","Guilford County Schools","C - 57","C","57","Met","49.8","100","35.90162659","-81.41865540"
"Sawmills Elementary","Caldwell County Schools","C - 56","C","56","NotMet","54.1","56","35.81882477","-81.47804260"
"South Caldwell High","Caldwell County Schools","C - 65","C","65","NotMet","54.5","36","35.82043839","-81.45212555"
"Valmead Elementary","Caldwell County Schools","D - 53","D","53","Met","46.1","91","35.93679810","-81.53949738"
"West Caldwell High","Caldwell County Schools","C - 63","C","63","NotMet","46.5","62","35.88702393","-81.59041595"
"West Lenoir Elementary","Caldwell County Schools","D - 44","D","44","Met","34.8","98","35.90870351","-81.55192070"
"Whitnel Elementary","Caldwell County Schools","C - 56","C","56","Met","49.5","80","35.88969067","-81.52307287"
"Camden County High","Camden County Schools","B - 75","B","75","Met","66.0","28","36.32691574","-76.17198181"
"Grandy Primary","Camden County Schools","B - 83","B","83","Exceeded","82.0","40","36.33228302","-76.18204498"
"Camden Intermediate","Camden County Schools","C - 69","C","69","Met","67.5","35","36.33377731","-76.18332110"
"Camden Middle","Camden County Schools","C - 61","C","61","NotMet","59.9","33","36.36220169","-76.17541504"
"CamTech High","Camden County Schools","B - 79","B","79","Met","62.3","31","36.32691574","-76.17198181"
"Atlantic Elementary","Carteret County Public Schools","B - 71","B","71","Met","70.0","57","34.88255471","-76.34138770"
"Bogue Sound Elementary","Carteret County Public Schools","C - 67","C","67","Met","63.0","57","34.72122721","-76.95168748"
"Beaufort Elementary","Carteret County Public Schools","B - 72","B","72","Met","69.2","70","34.73124300","-76.64645300"
"Bridges School","Carteret County Public Schools","NA - NA","N","","NA","11.9","78","34.73878898","-76.78941853"
"Beaufort Middle","Carteret County Public Schools","C - 60","C","60","Met","57.5","56","34.72774565","-76.64804935"
"Broad Creek Middle","Carteret County Public Schools","C - 68","C","68","NotMet","68.6","31","34.72859994","-76.91283502"
"East Carteret High","Carteret County Public Schools","B - 75","B","75","Exceeded","63.5","41","34.78102304","-76.62572734"
"Croatan High","Carteret County Public Schools","A+ - 90","A","90","Exceeded","82.5","26","34.89802933","-76.93058777"
"Harkers Island Elementary","Carteret County Public Schools","B - 73","B","73","Met","70.9","59","34.69336577","-76.55201755"
"Morehead Elem at Camp Glenn","Carteret County Public Schools","C - 58","C","58","NotMet","55.9","53","34.72430706","-76.74860671"
"Morehead City Middle","Carteret County Public Schools","B - 70","B","70","Exceeded","66.2","36","34.73110847","-76.74243025"
"Morehead City Primary","Carteret County Public Schools","C - 69","C","69","Met","65.9","56","34.73552339","-76.77722387"
"Newport Elementary","Carteret County Public Schools","B - 80","B","80","Exceeded","78.5","63","34.79040205","-76.85951069"
"Newport Middle","Carteret County Public Schools","C - 63","C","63","Met","58.7","55","34.77252579","-76.86112976"
"West Carteret High","Carteret County Public Schools","A+ - 85","A","85","Exceeded","75.2","41","34.73841095","-76.78673553"
"White Oak Elementary","Carteret County Public Schools","B - 78","B","78","Exceeded","74.3","31","35.53934479","-79.18541718"
"White Oak Elementary","Edenton-Chowan Schools","I - NA","I","","NA","NA","72","35.53934479","-79.18541718"
"Tiller School","Charter Schools","A - 86","A","86","Met","87.0","25","34.88716888","-76.56658173"
"Bartlett Yancey High","Caswell County Schools","D - 53","D","53","NotMet","35.4","57","36.40451521","-79.32822660"
"North Elementary","Caswell County Schools","C - 64","C","64","Met","59.8","87","36.52925110","-79.39546204"
"North Elementary","Cleveland County Schools","B - 79","B","79","Met","80.3","71","36.52925110","-79.39546204"
"North Elementary","Person County Schools","D - 41","D","41","Met","30.8","100","36.52925110","-79.39546204"
"N L Dillard Middle","Caswell County Schools","D - 45","D","45","NotMet","40.8","65","36.40981257","-79.36525650"
"Oakwood Elementary","Caswell County Schools","D - 42","D","42","NotMet","37.4","100","36.40981257","-79.36525650"
"Oakwood Elementary","Hickory City Schools","B - 77","B","77","Exceeded","73.4","56","36.40981257","-79.36525650"
"South Elementary","Caswell County Schools","C - 59","C","59","Exceeded","51.5","82","36.32820100","-79.24204789"
"South Elementary","Mooresville City Schools","B - 81","B","81","Exceeded","79.3","60","36.32820100","-79.24204789"
"South Elementary","Person County Schools","D - 40","D","40","NotMet","32.9","100","36.32820100","-79.24204789"
"Stoney Creek Elementary","Caswell County Schools","C - 63","C","63","Met","59.0","97","36.34589386","-79.42204285"
"Stoney Creek Elementary","Charlotte-Mecklenburg Schools","D - 54","D","54","Met","50.1","68","36.34589386","-79.42204285"
"Harry M Arndt Middle","Catawba County Schools","C - 68","C","68","Exceeded","59.8","59","35.77561900","-81.26792100"
"Balls Creek Elementary","Catawba County Schools","B - 71","B","71","Exceeded","66.5","53","35.62982941","-81.12723541"
"Bandys High","Catawba County Schools","B - 76","B","76","Met","64.8","32","35.67760468","-81.05386353"
"Banoak Elementary","Catawba County Schools","C - 69","C","69","Exceeded","64.8","62","35.58201218","-81.41674042"
"Blackburn Elementary","Catawba County Schools","C - 66","C","66","Met","63.8","52","35.61495209","-81.33108521"
"Bunker Hill High","Catawba County Schools","C - 64","C","64","Met","47.3","58","35.75373840","-81.12026215"
"Catawba Rosenwald Education Center","Catawba County Schools","NA - NA","N","","NA","6.8","80","35.70259720","-81.07542694"
"Catawba Elementary School","Catawba County Schools","C - 57","C","57","Met","52.2","64","35.69642600","-81.07286000"
"Challenger Early College High","Catawba County Schools","A+ - 97","A","97","Exceeded","94.8","46","35.69876480","-81.28159332"
"Charles H Tuttle Elementary","Catawba County Schools","B - 70","B","70","Met","66.7","44","35.58888245","-81.15776825"
"Claremont Elementary","Catawba County Schools","C - 57","C","57","Exceeded","50.3","58","35.71720886","-81.14328766"
"Clyde Campbell Elementary","Catawba County Schools","C - 66","C","66","Met","62.0","40","35.77744600","-81.28566700"
"Fred T Foard High","Catawba County Schools","B - 74","B","74","Met","60.8","36","35.61626816","-81.37217712"
"Jacobs Fork Middle","Catawba County Schools","C - 63","C","63","NotMet","62.3","42","35.61346054","-81.37097931"
"Lyle Creek Elementary","Catawba County Schools","C - 56","C","56","Exceeded","48.7","69","35.74805069","-81.20010376"
"Maiden Elementary","Catawba County Schools","C - 55","C","55","Met","50.2","59","35.57830048","-81.21092987"
"Maiden Middle School","Catawba County Schools","C - 63","C","63","Met","59.5","46","35.58124161","-81.21823883"
"Maiden High","Catawba County Schools","B - 73","B","73","Exceeded","60.0","48","35.58072281","-81.22653961"
"Mill Creek Middle","Catawba County Schools","C - 64","C","64","Met","62.1","39","35.65085220","-81.08982086"
"Mountain View Elementary","Ashe County Schools","B - 72","B","72","Exceeded","67.1","68","35.66215897","-81.38542938"
"Mountain View Elementary","Catawba County Schools","B - 74","B","74","Exceeded","70.1","43","35.66215897","-81.38542938"
"Mountain View Elementary","Wilkes County Schools","C - 66","C","66","Exceeded","61.5","53","35.66215897","-81.38542938"
"Oxford Elementary","Catawba County Schools","C - 65","C","65","Exceeded","57.3","60","35.77234650","-81.15531158"
"River Bend Middle","Catawba County Schools","D - 53","D","53","NotMet","49.2","62","35.75366592","-81.11513519"
"Sherrills Ford Elementary","Catawba County Schools","B - 77","B","77","Exceeded","73.9","29","35.75366592","-81.11513519"
"Saint Stephens Elementary","Catawba County Schools","D - 50","D","50","Met","41.6","85","35.73198318","-81.27315521"
"Saint Stephens High","Catawba County Schools","B - 72","B","72","Met","58.3","46","35.77228100","-81.26806600"
"Snow Creek Elementary","Catawba County Schools","B - 70","B","70","Exceeded","64.9","44","35.78050232","-81.26763916"
"Startown Elementary","Catawba County Schools","C - 67","C","67","Exceeded","62.2","46","35.63888550","-81.26979065"
"Webb A Murray Elementary","Catawba County Schools","C - 63","C","63","Exceeded","56.1","68","35.73735400","-81.25130400"
"Northview Middle","Hickory City Schools","C - 68","C","68","Exceeded","61.0","57","35.76649857","-81.32462311"
"Grandview Middle","Hickory City Schools","D - 48","D","48","NotMet","44.5","71","35.70439100","-81.33063500"
"Hickory High","Hickory City Schools","C - 62","C","62","NotMet","51.7","51","35.75032043","-81.33099365"
"W M Jenkins Elementary","Hickory City Schools","C - 67","C","67","Exceeded","61.9","48","35.78049800","-81.32018200"
"Longview Elementary","Hickory City Schools","D - 54","D","54","Met","47.0","100","35.72343000","-81.35937500"
"Oakwood Elementary","Caswell County Schools","D - 42","D","42","NotMet","37.4","100","35.72343000","-81.35937500"
"Oakwood Elementary","Hickory City Schools","B - 77","B","77","Exceeded","73.4","56","35.72343000","-81.35937500"
"Southwest Elementary","Durham Public Schools","D - 51","D","51","Met","43.7","63","35.70993042","-81.38613129"
"Southwest Elementary","Forsyth County Schools","C - 69","C","69","NotMet","71.6","46","35.70993042","-81.38613129"
"Southwest Elementary","Guilford County Schools","B - 80","B","80","Exceeded","78.5","22","35.70993042","-81.38613129"
"Southwest Elementary","Hickory City Schools","D - 41","D","41","Met","32.0","96","35.70993042","-81.38613129"
"Southwest Elementary","Onslow County Schools","C - 64","C","64","Met","61.8","51","35.70993042","-81.38613129"
"Viewmont Elementary","Hickory City Schools","D - 49","D","49","NotMet","46.1","68","35.70993042","-81.38613129"
"Conover Special Education","Newton Conover City Schools","NA - NA","N","","NA","28.4","65","35.70140094","-81.22069202"
"Newton-Conover High","Newton Conover City Schools","C - 65","C","65","NotMet","46.3","56","35.67906952","-81.22547150"
"Newton-Conover Middle","Newton Conover City Schools","D - 42","D","42","NotMet","39.7","65","35.73087300","-81.22574600"
"Shuford Elementary","Newton Conover City Schools","C - 67","C","67","Met","65.3","60","35.72054200","-81.19914200"
"South Newton Elementary","Newton Conover City Schools","C - 56","C","56","Met","52.1","83","35.65529200","-81.22887400"
"North Newton Elementary","Newton Conover City Schools","C - 59","C","59","Exceeded","52.3","82","35.68881226","-81.22179413"
"Discovery High School","Newton Conover City Schools","B - 81","B","81","NotMet","80.1","45","35.67959595","-81.22236633"
"Bennett School","Chatham County Schools","C - 67","C","67","Met","63.1","40","35.56201935","-79.54688263"
"Bonlee School","Chatham County Schools","C - 62","C","62","Exceeded","56.0","57","35.64657974","-79.41462708"
"SAGE Academy","Chatham County Schools","NA - NA","N","","NA","5.1","71","35.73056400","-79.45981500"
"Chatham Middle","Chatham County Schools","D - 45","D","45","Met","35.3","89","35.70758057","-79.44512939"
"Chatham Central High","Chatham County Schools","B - 75","B","75","Exceeded","63.7","35","35.61512300","-79.39063200"
"Horton Middle","Chatham County Schools","C - 56","C","56","NotMet","52.4","46","35.71471024","-79.17626953"
"J S Waters School","Chatham County Schools","C - 66","C","66","Exceeded","60.8","50","35.60186386","-79.32479858"
"Jordan Matthews High","Chatham County Schools","C - 67","C","67","Exceeded","46.0","69","35.72375870","-79.45218658"
"Margaret B. Pollard Middle","Chatham County Schools","B - 74","B","74","Met","71.3","29","35.81647441","-79.11272585"
"Moncure School","Chatham County Schools","C - 66","C","66","Exceeded","61.4","40","35.63156761","-79.07849014"
"North Chatham Elementary","Chatham County Schools","C - 58","C","58","Exceeded","50.9","40","35.82151794","-79.03723145"
"Northwood High","Chatham County Schools","B - 79","B","79","Exceeded","66.8","28","35.75653458","-79.17282104"
"Perry W Harrison Elementary","Chatham County Schools","B - 74","B","74","NotMet","75.1","25","35.80835724","-79.16110229"
"Pittsboro Elementary","Chatham County Schools","C - 65","C","65","NotMet","64.6","43","35.71725400","-79.18409700"
"Siler City Elementary","Chatham County Schools","D - 53","D","53","Met","46.2","78","35.72713800","-79.49269800"
"Silk Hope School","Chatham County Schools","B - 71","B","71","Met","68.3","40","35.78036880","-79.36711884"
"Virginia Cross Elementary","Chatham County Schools","D - 47","D","47","Met","39.2","86","35.71179962","-79.44135284"
"Chatham Charter","Charter Schools","B - 77","B","77","Exceeded","73.9","12","35.74290400","-79.48097900"
"Woods Charter","Charter Schools","A+ - 89","A","89","Met","89.3","5","35.81437625","-79.10902575"
"Willow Oak Montessori","Charter Schools","B - 72","B","72","Met","70.2","10","35.85437201","-79.02539849"
"Andrews Elementary","Cherokee County Schools","C - 61","C","61","Met","55.7","100","35.20399475","-83.80509949"
"Andrews High","Cherokee County Schools","C - 62","C","62","NotMet","48.4","53","35.19547653","-83.82400513"
"Andrews Middle","Cherokee County Schools","D - 51","D","51","NotMet","46.6","69","35.19482422","-83.79718781"
"Hiwassee Dam Elementary/Middle","Cherokee County Schools","C - 65","C","65","Met","60.6","77","35.10250854","-84.22561646"
"Hiwassee Dam High","Cherokee County Schools","C - 67","C","67","Met","44.3","52","35.10304436","-84.22356382"
"Marble Elementary","Cherokee County Schools","D - 49","D","49","NotMet","44.4","87","35.17839813","-83.92067719"
"Martins Creek Elementary/Mid","Cherokee County Schools","C - 67","C","67","Met","62.3","100","35.01804352","-84.01729584"
"Mountain Youth School","Cherokee County Schools","NA - NA","N","","NA","NA","100","35.02411270","-84.03038025"
"Murphy Elementary","Cherokee County Schools","C - 68","C","68","Met","64.8","88","35.09002304","-84.03005219"
"Murphy High","Cherokee County Schools","C - 65","C","65","NotMet","46.0","63","35.10046387","-84.01044464"
"Murphy Middle","Cherokee County Schools","C - 55","C","55","NotMet","51.9","71","35.10071945","-84.01484680"
"Peachtree Elementary","Cherokee County Schools","B - 76","B","76","Exceeded","74.0","94","35.09116364","-83.94557190"
"Ranger Elementary/Middle","Cherokee County Schools","C - 60","C","60","NotMet","58.1","76","35.01607895","-84.18244934"
"Tri-County Early College High","Cherokee County Schools","B - 80","B","80","Met","70.5","39","35.06715909","-83.96510683"
"The Learning Center","Charter Schools","C - 56","C","56","Met","51.7","72","35.09404755","-84.03479767"
"Chowan Middle","Edenton-Chowan Schools","C - 61","C","61","Exceeded","52.3","63","36.23308563","-76.65615845"
"D F Walker Elementary","Edenton-Chowan Schools","D - 54","D","54","NotMet","52.5","65","36.16399616","-76.65189430"
"John A Holmes High","Edenton-Chowan Schools","C - 58","C","58","NotMet","39.9","58","36.06641769","-76.60408783"
"White Oak Elementary","Carteret County Public Schools","B - 78","B","78","Exceeded","74.3","31","36.16431427","-76.65380859"
"White Oak Elementary","Edenton-Chowan Schools","I - NA","I","","NA","NA","72","36.16431427","-76.65380859"
"Hayesville Elementary","Clay County Schools","C - 59","C","59","NotMet","57.3","60","35.04201874","-83.81425738"
"Hayesville High","Clay County Schools","B - 70","B","70","Met","54.8","46","35.04051805","-83.81354660"
"Hayesville Middle","Clay County Schools","C - 59","C","59","Met","53.9","60","35.04067026","-83.81730638"
"Bethware Elementary","Cleveland County Schools","B - 77","B","77","Exceeded","75.1","66","35.24819565","-81.41419220"
"Boiling Springs Elementary","Cleveland County Schools","B - 78","B","78","Met","76.5","53","35.23880638","-81.65334575"
"Burns High","Cleveland County Schools","C - 69","C","69","Met","49.8","58","35.42171478","-81.53621674"
"Burns Middle","Cleveland County Schools","C - 55","C","55","NotMet","52.9","67","35.42571276","-81.53914601"
"Casar Elementary","Cleveland County Schools","B - 74","B","74","Exceeded","70.8","65","35.50726700","-81.62002563"
"Cleveland ECHS","Cleveland County Schools","A+ - 85","A","85","Met","81.5","64","35.27756882","-81.49036407"
"Crest High","Cleveland County Schools","C - 67","C","67","NotMet","53.8","49","35.27267838","-81.61293030"
"Crest Middle","Cleveland County Schools","C - 56","C","56","NotMet","55.2","58","35.27267838","-81.61293030"
"Turning Point Academy","Charlotte-Mecklenburg Schools","NA - NA","N","","NA","10.3","86","35.29349260","-81.54519908"
"Turning Point Academy","Cleveland County Schools","NA - NA","N","","NA","5.7","88","35.29349260","-81.54519908"
"East Elementary","Cleveland County Schools","B - 77","B","77","Exceeded","74.5","76","35.24930100","-81.33007000"
"East Elementary","Union County Public Schools","F - 36","F","36","NotMet","29.2","98","35.24930100","-81.33007000"
"Shelby Intermediate","Cleveland County Schools","C - 57","C","57","Met","50.7","71","35.27966690","-81.49474335"
"Fallston Elementary","Cleveland County Schools","C - 64","C","64","Met","60.1","65","35.42810822","-81.50147247"
"Graham Elementary","Cleveland County Schools","D - 53","D","53","Met","45.6","94","35.28855133","-81.55928040"
"Grover Elementary","Cleveland County Schools","B - 70","B","70","Exceeded","65.7","77","35.17530800","-81.44676900"
"James Love Elementary","Cleveland County Schools","D - 50","D","50","Met","44.3","92","35.26522064","-81.56731415"
"Jefferson Elementary","Cleveland County Schools","C - 68","C","68","Met","63.5","60","35.30199432","-81.51320648"
"Jefferson Elementary","Forsyth County Schools","A+ - 85","A","85","Met","85.4","30","35.30199432","-81.51320648"
"Jefferson Elementary","Guilford County Schools","C - 67","C","67","Met","64.0","76","35.30199432","-81.51320648"
"Kings Mountain High","Cleveland County Schools","B - 78","B","78","Exceeded","64.9","49","35.23313100","-81.37221500"
"Kings Mountain Intermediate","Cleveland County Schools","C - 63","C","63","NotMet","63.6","62","35.23519814","-81.38012119"
"Kings Mountain Middle","Cleveland County Schools","C - 58","C","58","NotMet","58.9","60","35.22941194","-81.37297645"
"Marion Elementary","Cleveland County Schools","C - 60","C","60","Met","54.6","70","35.28852844","-81.52500916"
"Marion Elementary","McDowell County Schools","C - 57","C","57","NotMet","56.1","90","35.28852844","-81.52500916"
"North Elementary","Caswell County Schools","C - 64","C","64","Met","59.8","87","35.24327850","-81.37199402"
"North Elementary","Cleveland County Schools","B - 79","B","79","Met","80.3","71","35.24327850","-81.37199402"
"North Elementary","Person County Schools","D - 41","D","41","Met","30.8","100","35.24327850","-81.37199402"
"North Shelby","Cleveland County Schools","NA - NA","N","","NA","63.4","80","35.31044300","-81.53393500"
"Shelby High","Cleveland County Schools","C - 62","C","62","NotMet","46.8","61","35.27407455","-81.53691101"
"Shelby Middle","Cleveland County Schools","D - 46","D","46","NotMet","43.3","71","35.26686363","-81.54300906"
"Springmore Elementary","Cleveland County Schools","B - 74","B","74","Exceeded","69.4","52","35.27630234","-81.66757965"
"Township Three Elementary","Cleveland County Schools","C - 57","C","57","Met","53.2","81","35.21709061","-81.53273773"
"Union Elementary","Brunswick County Schools","B - 75","B","75","Exceeded","71.8","99","35.38950428","-81.61649019"
"Union Elementary","Cleveland County Schools","C - 62","C","62","Met","56.5","72","35.38950428","-81.61649019"
"Union Elementary","Lincoln County Schools","B - 79","B","79","Exceeded","76.5","51","35.38950428","-81.61649019"
"Union Elementary","Robeson County Schools","C - 57","C","57","Exceeded","48.2","83","35.38950428","-81.61649019"
"Union Elementary","Sampson County Schools","B - 74","B","74","Exceeded","71.3","91","35.38950428","-81.61649019"
"Union Elementary","Union County Public Schools","B - 70","B","70","Met","67.1","62","35.38950428","-81.61649019"
"Washington Elementary","Cleveland County Schools","C - 68","C","68","Met","63.6","83","35.33538871","-81.42109931"
"Washington Elementary","Guilford County Schools","F - 38","F","38","NotMet","30.8","100","35.33538871","-81.42109931"
"Washington Elementary","Wake County Schools","B - 73","B","73","Met","70.0","29","35.33538871","-81.42109931"
"West Elementary","Cleveland County Schools","B - 80","B","80","Exceeded","78.8","51","35.23936830","-81.35109633"
"Pinnacle Classical Academy","Charter Schools","B - 73","B","73","Met","69.9","26","35.25994110","-81.50135040"
"Acme Delco Middle","Columbus County Schools","F - 39","F","39","NotMet","33.5","79","34.31449302","-78.21694113"
"Acme Delco Elementary","Columbus County Schools","D - 50","D","50","Met","42.0","97","34.34730984","-78.25472608"
"Cerro Gordo Elementary","Columbus County Schools","C - 59","C","59","Met","55.0","94","34.32910435","-78.93008150"
"Chadbourn Middle","Columbus County Schools","D - 51","D","51","Exceeded","41.7","100","34.31643762","-78.83567914"
"Chadbourn Elementary","Columbus County Schools","D - 42","D","42","Met","33.3","100","34.32582855","-78.82164001"
"East Columbus High","Columbus County Schools","D - 54","D","54","NotMet","36.5","60","34.33432388","-78.50227356"
"Evergreen Elementary","Columbus County Schools","D - 52","D","52","Met","45.4","100","34.40782584","-78.89787152"
"Guideway Elementary","Columbus County Schools","F - 39","F","39","Met","31.3","100","34.06651743","-78.69917013"
"Hallsboro-Artesia Elementary","Columbus County Schools","D - 49","D","49","Met","40.5","100","34.31062996","-78.57932366"
"Hallsboro Middle","Columbus County Schools","D - 50","D","50","Met","42.1","78","34.32079487","-78.59386593"
"Nakina Middle","Columbus County Schools","C - 57","C","57","NotMet","53.9","71","34.10847992","-78.65388907"
"Old Dock Elementary","Columbus County Schools","C - 68","C","68","Exceeded","64.0","71","34.16481400","-78.59577942"
"South Columbus High","Columbus County Schools","C - 61","C","61","Met","44.3","49","34.17306137","-78.81228638"
"Tabor City Elementary","Columbus County Schools","D - 43","D","43","Met","36.3","100","34.15180765","-78.87299873"
"CCCA - Fair Bluff /Southeastern Campuses","Columbus County Schools","C - 66","C","66","Met","49.7","49","34.33339310","-78.78509521"
"Tabor City Middle","Columbus County Schools","D - 43","D","43","NotMet","36.9","100","34.14882705","-78.88649695"
"West Columbus High","Columbus County Schools","C - 57","C","57","NotMet","40.9","71","34.32763852","-78.92422892"
"Williams Township","Columbus County Schools","C - 57","C","57","Met","51.7","81","34.20388006","-78.76316428"
"Central Middle","Surry County Schools","C - 68","C","68","Exceeded","61.8","70","34.29247665","-78.67752075"
"Central Middle","Whiteville City Schools","C - 63","C","63","Exceeded","57.0","68","34.29247665","-78.67752075"
"Edgewood Elementary","Whiteville City Schools","C - 64","C","64","Exceeded","56.8","80","34.33081761","-78.69826086"
"North Whiteville Academy","Whiteville City Schools","NA - NA","N","","NA","12.9","91","34.32713318","-78.71168518"
"Whiteville High","Whiteville City Schools","C - 61","C","61","NotMet","47.6","57","34.33406308","-78.70609358"
"Whiteville Primary","Whiteville City Schools","I - NA","I","","NA","NA","86","34.33894671","-78.71164173"
"Flemington Academy","Charter Schools","F - 33","F","33","Met","17.9","93","34.31848213","-78.52379188"
"Columbus Charter School","Charter Schools","B - 70","B","70","Exceeded","64.2","42","34.40415859","-78.77267540"
"Albert H Bangert Elementary","Craven County Schools","C - 57","C","57","Met","52.3","57","35.08309100","-77.08300700"
"Ben D Quinn Elementary","Craven County Schools","C - 65","C","65","Met","62.9","58","35.09062900","-77.13040100"
"Bridgeton Elementary","Craven County Schools","C - 68","C","68","Exceeded","63.5","63","35.15404129","-77.04199219"
"Brinson Memorial Elementary","Craven County Schools","B - 70","B","70","Met","68.4","43","35.06852300","-77.01636500"
"Craven Early College High","Craven County Schools","A - 85","A","85","Exceeded","72.9","42","35.11083900","-77.10411000"
"Creekside Elementary","Craven County Schools","B - 73","B","73","Exceeded","69.6","28","35.02708000","-77.02127000"
"Creekside Elementary","Durham Public Schools","C - 66","C","66","Met","62.6","44","35.02708000","-77.02127000"
"Creekside Elementary","Pitt County Schools","C - 57","C","57","Exceeded","49.3","50","35.02708000","-77.02127000"
"Vanceboro-Farm Life Elementary","Craven County Schools","D - 52","D","52","NotMet","48.5","80","35.30879900","-77.14588100"
"Early College EAST High","Craven County Schools","B - 81","B","81","Met","70.0","30","34.87857056","-76.89733887"
"Grover C Fields Middle","Craven County Schools","C - 60","C","60","Met","54.6","68","35.10885403","-77.07187526"
"Graham A Barden Elementary","Craven County Schools","B - 79","B","79","Exceeded","77.0","67","34.89786911","-76.91661072"
"H J MacDonald Middle","Craven County Schools","C - 59","C","59","NotMet","58.2","49","35.11734000","-77.09757200"
"Havelock Elementary","Craven County Schools","C - 58","C","58","Met","54.7","66","34.87729020","-76.90241329"
"Havelock High","Craven County Schools","C - 68","C","68","Met","52.8","45","34.87995148","-76.89309692"
"Havelock Middle","Craven County Schools","C - 68","C","68","Exceeded","62.0","68","34.87760925","-76.89947510"
"J T Barber Elementary","Craven County Schools","C - 57","C","57","Met","51.2","85","35.11948000","-77.06388800"
"James W Smith Elementary","Craven County Schools","C - 55","C","55","Exceeded","45.8","80","35.25033569","-77.29076385"
"New Bern High","Craven County Schools","C - 66","C","66","NotMet","53.3","50","35.10128784","-77.11617279"
"Oaks Road Elementary","Craven County Schools","D - 51","D","51","Met","43.3","92","35.12646484","-77.06663513"
"Roger R Bell Elementary","Craven County Schools","D - 50","D","50","Met","43.4","72","34.88105000","-76.87975300"
"Trent Park Elementary","Craven County Schools","C - 59","C","59","Exceeded","52.7","76","35.10982513","-77.08055878"
"Tucker Creek Middle","Craven County Schools","B - 72","B","72","Met","70.7","42","35.10982513","-77.08055878"
"West Craven High","Craven County Schools","C - 65","C","65","Met","48.1","57","35.23747253","-77.13829803"
"West Craven Middle","Craven County Schools","C - 60","C","60","Exceeded","51.5","72","35.07934570","-77.11846924"
"W Jesse Gurganus Elementary","Craven County Schools","B - 79","B","79","Met","78.1","44","34.91055298","-76.94187927"
"Arthur W Edwards Elementary","Craven County Schools","B - 74","B","74","Exceeded","70.4","53","34.91002655","-76.92818451"
"Alma O Easom Elementary","Cumberland County Schools","I - NA","I","","NA","NA","40","35.06111526","-78.90831757"
"Armstrong Elementary","Cumberland County Schools","B - 70","B","70","Met","67.3","65","35.09151459","-78.79136658"
"Ashley Elementary","Cumberland County Schools","C - 55","C","55","NotMet","51.1","59","35.03821100","-78.90647100"
"Loyd E Auman Elementary","Cumberland County Schools","D - 52","D","52","Met","46.6","69","35.03799000","-79.01078000"
"Beaver Dam Elementary","Cumberland County Schools","A - 85","A","85","Met","84.5","58","34.97382736","-78.50919342"
"Lillian Black Elementary","Cumberland County Schools","D - 48","D","48","Met","42.4","76","35.16723251","-78.97117615"
"Jack Britt High","Cumberland County Schools","A - 88","A","88","Exceeded","81.3","28","34.97766100","-79.01235100"
"Brentwood Elementary","Cumberland County Schools","C - 64","C","64","Met","59.3","86","35.03802400","-78.98279500"
"Brentwood Elementary","Wake County Schools","C - 55","C","55","NotMet","51.6","74","35.03802400","-78.98279500"
"Douglas Byrd Middle","Cumberland County Schools","D - 50","D","50","Exceeded","39.7","84","35.03210000","-78.95022500"
"Douglas Byrd High","Cumberland County Schools","C - 59","C","59","Exceeded","34.0","78","35.03323317","-78.94670852"
"Cape Fear High","Cumberland County Schools","B - 75","B","75","Exceeded","58.3","45","35.04629898","-78.85321045"
"Elizabeth M Cashwell Elementary","Cumberland County Schools","D - 54","D","54","Exceeded","45.1","85","35.00695400","-78.91533600"
"Eastover Central Elementary","Cumberland County Schools","B - 71","B","71","NotMet","71.7","34","35.00695400","-78.91533600"
"Anne Chesnutt Middle","Cumberland County Schools","D - 54","D","54","Exceeded","44.2","61","35.04999900","-78.97312100"
"Cliffdale Elementary","Cumberland County Schools","D - 50","D","50","Met","42.2","79","35.05946732","-78.99470520"
"College Lakes Elementary","Cumberland County Schools","C - 56","C","56","Met","49.5","69","35.12788631","-78.89825307"
"C Wayne Collier Elementary","Cumberland County Schools","C - 58","C","58","Met","51.2","63","34.97500200","-78.98265800"
"J W Coon Elementary","Cumberland County Schools","C - 61","C","61","Exceeded","54.8","83","35.03256989","-78.95925140"
"Cumberland International Early CollegeHS","Cumberland County Schools","A - 91","A","91","Met","87.6","53","35.53934479","-79.18541718"
"Cumberland Mills Elementary","Cumberland County Schools","C - 60","C","60","Exceeded","51.8","77","35.00247500","-78.96923800"
"Cumberland Road Elementary","Cumberland County Schools","C - 63","C","63","Exceeded","56.2","81","35.02050474","-78.90961625"
"Cross Creek Early College","Cumberland County Schools","A - 87","A","87","Met","83.6","55","35.07164106","-78.89452815"
"District No 7 Elementary","Cumberland County Schools","B - 80","B","80","Exceeded","78.0","51","35.14982224","-78.70621490"
"Grays Creek High","Cumberland County Schools","B - 75","B","75","Exceeded","59.4","35","34.92111969","-78.90460205"
"Luther Nick Jeralds Middle","Cumberland County Schools","D - 41","D","41","NotMet","36.0","86","35.09353459","-78.87738951"
"E E Smith High","Cumberland County Schools","C - 64","C","64","Met","46.4","60","35.08523900","-78.89579700"
"Ferguson-Easley Elementary","Cumberland County Schools","D - 54","D","54","Met","47.0","87","35.08499100","-78.89923800"
"Grays Creek Middle","Cumberland County Schools","C - 64","C","64","Met","59.7","49","34.91980743","-78.89964294"
"Glendale Acres Elementary","Cumberland County Schools","I - NA","I","","NA","NA","67","35.03497300","-78.92668900"
"Alderman Road Elementary","Cumberland County Schools","C - 60","C","60","Exceeded","53.4","61","34.89597581","-78.86184141"
"R Max Abbott Middle","Cumberland County Schools","C - 59","C","59","Met","54.0","55","35.05086400","-78.92158225"
"Howard L Hall Elementary","Cumberland County Schools","B - 77","B","77","Met","75.2","35","35.15620574","-78.88672896"
"Bill Hefner Elementary","Cumberland County Schools","C - 58","C","58","Met","52.3","62","35.06659300","-79.04650800"
"Hope Mills Middle","Cumberland County Schools","D - 49","D","49","NotMet","46.7","55","34.96485500","-78.93949800"
"John R Griffin Middle","Cumberland County Schools","B - 74","B","74","Exceeded","69.4","32","34.99995804","-78.98966980"
"Ed V Baldwin Elementary","Cumberland County Schools","C - 60","C","60","Exceeded","53.2","56","34.97895000","-78.93367700"
"Ireland Drive Middle","Cumberland County Schools","D - 43","D","43","NotMet","39.0","83","35.03394797","-78.94676283"
"Lewis Chapel Middle","Cumberland County Schools","F - 38","F","38","NotMet","32.7","74","35.04835500","-78.97676000"
"Gallberry Farm Elementary","Cumberland County Schools","C - 66","C","66","Met","61.2","51","34.92006302","-78.91539764"
"Alger B. Wilkins High School PLC","Cumberland County Schools","NA - NA","N","","NA","18.1","70","35.08254600","-78.95189600"
"Grays Creek Elementary","Cumberland County Schools","C - 63","C","63","Met","58.7","44","34.89031982","-78.86803436"
"Long Hill Elementary","Cumberland County Schools","B - 76","B","76","Met","74.2","31","35.16241800","-78.86515000"
"Lucile Souders Elementary","Cumberland County Schools","D - 53","D","53","Met","46.9","79","35.09921646","-78.88186646"
"Mac Williams Middle","Cumberland County Schools","C - 58","C","58","NotMet","56.3","52","35.03443146","-78.76754761"
"Margaret Willis Elementary","Cumberland County Schools","C - 57","C","57","Met","51.5","80","35.07135000","-78.90430400"
"Massey Hill Classical High","Cumberland County Schools","B - 83","B","83","Exceeded","74.4","26","35.03145981","-78.89518738"
"Mary McArthur Elementary","Cumberland County Schools","D - 47","D","47","NotMet","43.1","75","35.02553500","-78.94109300"
"E Melvin Honeycutt Elementary","Cumberland County Schools","B - 74","B","74","Met","72.2","39","35.00131989","-78.99278259"
"E E Miller Elementary","Cumberland County Schools","C - 58","C","58","Met","53.3","62","35.05373798","-79.04520862"
"Montclair Elementary","Cumberland County Schools","D - 52","D","52","NotMet","49.5","77","35.05524800","-78.96067800"
"Morganton Road Elementary","Cumberland County Schools","C - 60","C","60","Exceeded","52.4","71","35.07965800","-78.98713600"
"Manchester Elementary","Cumberland County Schools","D - 47","D","47","Met","40.5","76","35.17082596","-78.96692657"
"New Century International Elementary","Cumberland County Schools","C - 69","C","69","Exceeded","63.1","49","35.01292683","-79.04095329"
"William H Owen Elementary","Cumberland County Schools","C - 57","C","57","NotMet","56.3","81","35.04171700","-78.95417000"
"Walker Spivey Elementary","Cumberland County Schools","C - 57","C","57","Met","51.0","98","35.03624344","-78.87876129"
"Pine Forest Middle","Cumberland County Schools","B - 72","B","72","Exceeded","66.4","41","35.18095398","-78.85726166"
"Lake Rim Elementary","Cumberland County Schools","C - 60","C","60","Met","57.2","55","35.04956000","-79.07577500"
"Pine Forest High","Cumberland County Schools","C - 67","C","67","NotMet","51.1","50","35.15552312","-78.88969213"
"Ponderosa Elementary","Cumberland County Schools","C - 56","C","56","Met","49.7","76","35.08703200","-78.98794500"
"Reid Ross Classical High","Cumberland County Schools","C - 62","C","62","NotMet","42.4","48","35.08703200","-78.98794500"
"Raleigh Road Elementary","Cumberland County Schools","I - NA","I","","NA","NA","33","35.21825127","-78.84149887"
"Pauline Jones Middle","Cumberland County Schools","NA - NA","N","","NA","16.7","77","35.05266100","-78.86976600"
"Benjamin J Martin Elementary","Cumberland County Schools","C - 58","C","58","Exceeded","50.4","72","35.09288700","-79.00919300"
"Rockfish Elementary","Cumberland County Schools","B - 74","B","74","Met","72.6","49","34.97121000","-78.95716800"
"J W Seabrook Elementary","Cumberland County Schools","C - 60","C","60","Met","54.4","71","35.04814148","-78.85240173"
"New Century International Middle","Cumberland County Schools","C - 63","C","63","Met","57.9","44","35.01277864","-79.04070050"
"Seventy-First Classical Middle","Cumberland County Schools","B - 78","B","78","Exceeded","73.2","40","35.03844833","-79.00895691"
"Reid Ross Classical Middle","Cumberland County Schools","C - 57","C","57","NotMet","54.2","64","35.10225600","-78.87660200"
"Seventy-First High","Cumberland County Schools","C - 59","C","59","Met","37.5","60","35.03963089","-79.00556183"
"South View Middle","Cumberland County Schools","D - 43","D","43","NotMet","38.7","67","34.97797700","-78.92807000"
"Sherwood Park Elementary","Cumberland County Schools","D - 52","D","52","Met","44.9","78","35.01831800","-78.96171500"
"South View High","Cumberland County Schools","C - 64","C","64","Exceeded","44.4","54","34.97875951","-78.92474994"
"Spring Lake Middle","Cumberland County Schools","F - 39","F","39","NotMet","32.7","75","35.16873100","-78.96548400"
"Stedman Elementary","Cumberland County Schools","B - 79","B","79","Met","78.5","53","35.53934479","-79.18541718"
"Stedman Primary","Cumberland County Schools","I - NA","I","","NA","NA","54","35.01085281","-78.69186401"
"Stoney Point Elementary","Cumberland County Schools","B - 73","B","73","Met","70.0","26","34.98102129","-79.01359409"
"Sunnyside Elementary","Cumberland County Schools","C - 61","C","61","Met","55.4","76","35.02715683","-78.79742432"
"Teresa C Berrien Elementary","Cumberland County Schools","D - 53","D","53","Met","45.5","89","35.06558900","-78.87423700"
"Terry Sanford High","Cumberland County Schools","C - 69","C","69","Met","51.3","41","35.06440300","-78.91527500"
"Vanstory Hills Elementary","Cumberland County Schools","B - 80","B","80","Exceeded","76.2","38","35.05667496","-78.92682648"
"Ramsey Street High","Cumberland County Schools","NA - NA","N","","NA","9.0","65","35.07848740","-78.88293457"
"Warrenwood Elementary","Cumberland County Schools","D - 50","D","50","Met","43.6","77","35.12011700","-78.90914100"
"Westarea Elementary","Cumberland County Schools","C - 58","C","58","Exceeded","50.5","85","35.09820900","-78.91240600"
"Westover Middle","Cumberland County Schools","D - 49","D","49","Exceeded","39.5","75","35.08433500","-78.99156900"
"Westover High","Cumberland County Schools","C - 59","C","59","Exceeded","36.8","71","35.08420922","-78.98733057"
"William T Brown Elementary","Cumberland County Schools","D - 46","D","46","Met","36.8","72","35.15957259","-78.96830164"
"Howard Health & Life Sciences","Cumberland County Schools","A - 90","A","90","Exceeded","84.7","47","35.02968200","-78.89823100"
"Alpha Academy","Charter Schools","C - 62","C","62","Met","58.5","85","35.03437000","-79.06739800"
"The Capitol Encore Academy","Charter Schools","D - 43","D","43","NotMet","38.6","41","35.05348969","-78.87900543"
"Central Elementary","Currituck County Schools","C - 59","C","59","Met","54.3","63","36.38957200","-76.00914700"
"Central Elementary","Haywood County Schools","C - 66","C","66","Met","62.6","100","36.38957200","-76.00914700"
"Central Elementary","Iredell-Statesville Schools","B - 75","B","75","Met","73.2","47","36.38957200","-76.00914700"
"Central Elementary","Northampton County Schools","F - 36","F","36","Met","26.1","92","36.38957200","-76.00914700"
"Central Elementary","Orange County Schools","C - 57","C","57","Exceeded","49.0","69","36.38957200","-76.00914700"
"Central Elementary","Pasquotank County Schools","C - 61","C","61","Met","56.1","59","36.38957200","-76.00914700"
"Central Elementary","Rockingham County Schools","C - 67","C","67","Exceeded","62.0","61","36.38957200","-76.00914700"
"Central Elementary","Stanly County Schools","D - 51","D","51","NotMet","48.0","80","36.38957200","-76.00914700"
"Currituck County High","Currituck County Schools","C - 59","C","59","NotMet","46.0","33","36.37323700","-75.96959600"
"Currituck County Middle","Currituck County Schools","B - 71","B","71","Exceeded","66.1","46","36.36889882","-75.97030543"
"Jarvisburg Elementary","Currituck County Schools","C - 67","C","67","Exceeded","62.5","56","36.19926251","-75.85415974"
"Shawboro Elementary School","Currituck County Schools","C - 64","C","64","Met","62.3","43","36.43719400","-76.08695900"
"The JP Knapp ECH (i)School","Currituck County Schools","A - 87","A","87","Exceeded","81.7","25","36.44471146","-76.01343803"
"Knotts Island Elementary","Currituck County Schools","B - 70","B","70","Met","69.7","47","36.51371300","-75.91937200"
"Moyock Elementary","Currituck County Schools","C - 69","C","69","Met","67.1","26","36.52447097","-76.17473736"
"Moyock Middle","Currituck County Schools","C - 63","C","63","Met","60.3","31","36.50095700","-76.15625700"
"W T Griggs Elementary","Currituck County Schools","C - 57","C","57","NotMet","54.5","64","36.28024673","-75.89147949"
"Water's Edge Village School","Charter Schools","C - 55","C","55","NA","52.2","26","36.37826100","-75.83204600"
"Cape Hatteras Elementary School","Dare County Schools","C - 67","C","67","Met","64.2","61","35.25011444","-75.55029297"
"Cape Hatteras Secondary School","Dare County Schools","C - 56","C","56","NotMet","51.6","53","35.25011444","-75.55029297"
"Dare County Alternative School","Dare County Schools","NA - NA","N","","NA","27.6","100","35.97792059","-75.63846320"
"Kitty Hawk Elementary School","Dare County Schools","B - 79","B","79","Exceeded","75.6","24","36.12924814","-75.72884828"
"Nags Head Elementary School","Dare County Schools","B - 75","B","75","Exceeded","72.1","45","35.97607040","-75.63867950"
"Manteo Elementary School","Dare County Schools","C - 55","C","55","NotMet","51.4","61","35.53934479","-79.18541718"
"Manteo High School","Dare County Schools","B - 76","B","76","Exceeded","61.5","43","35.91673600","-75.67353800"
"Manteo Middle School","Dare County Schools","C - 63","C","63","Met","59.7","58","35.91673600","-75.67353800"
"First Flight Elementary School","Dare County Schools","B - 71","B","71","Met","69.3","43","35.31106186","-80.26329041"
"First Flight Middle School","Dare County Schools","C - 63","C","63","NotMet","65.3","35","35.31106186","-80.26329041"
"First Flight High School","Dare County Schools","B - 80","B","80","Met","69.4","27","35.31106186","-80.26329041"
"Brier Creek Elementary","Davidson County Schools","C - 63","C","63","Met","59.7","59","35.79832077","-80.08731842"
"Brier Creek Elementary","Wake County Schools","C - 67","C","67","NotMet","69.9","22","35.79832077","-80.08731842"
"Northwest Elementary","Davidson County Schools","C - 69","C","69","Met","66.3","36","35.94179535","-80.30037689"
"Northwest Elementary","Lenoir County Public Schools","D - 47","D","47","Met","38.4","60","35.94179535","-80.30037689"
"Northwest Elementary","Pitt County Schools","D - 47","D","47","NotMet","43.7","100","35.94179535","-80.30037689"
"Northwest Elementary","Wayne County Public Schools","C - 63","C","63","Exceeded","56.7","43","35.94179535","-80.30037689"
"Southmont Elementary","Davidson County Schools","C - 66","C","66","Exceeded","60.1","63","35.66423035","-80.27214813"
"Southmont Elementary","Randolph County Schools","C - 55","C","55","NotMet","52.0","65","35.66423035","-80.27214813"
"Central Davidson High","Davidson County Schools","C - 64","C","64","NotMet","49.0","45","35.73952720","-80.22311345"
"Central Davidson Middle","Davidson County Schools","C - 55","C","55","NotMet","54.3","55","35.74090183","-80.22517003"
"Stoner-Thomas School","Davidson County Schools","NA - NA","N","","NA","30.4","71","35.81769180","-80.19961548"
"Churchland Elementary","Davidson County Schools","C - 55","C","55","NotMet","52.6","65","35.78443475","-80.41646719"
"Davidson County High School","Davidson County Schools","NA - NA","N","","NA","37.2","70","35.81657901","-80.18930286"
"Davidson Early College","Davidson County Schools","A - 91","A","91","Met","90.2","49","35.87165451","-80.18212128"
"Davis-Townsend Elementary","Davidson County Schools","C - 64","C","64","NotMet","62.5","47","35.80734253","-80.16330719"
"Denton Elementary","Davidson County Schools","C - 55","C","55","Met","48.9","63","35.63336201","-80.11888348"
"E Lawson Brown Middle","Davidson County Schools","C - 60","C","60","Met","55.1","53","35.84879684","-80.10449219"
"East Davidson High","Davidson County Schools","C - 68","C","68","NotMet","57.3","40","35.85044400","-80.10217200"
"Fair Grove Elementary","Davidson County Schools","C - 66","C","66","Met","62.3","54","35.84762900","-80.07950500"
"Friedberg Elementary","Davidson County Schools","C - 69","C","69","Met","67.6","31","35.99241638","-80.27694702"
"Hasty Elementary","Davidson County Schools","B - 71","B","71","Exceeded","66.9","59","35.92345800","-80.08177900"
"Friendship Elementary","Davidson County Schools","B - 75","B","75","Exceeded","71.9","37","35.96017075","-80.13991547"
"Ledford Middle","Davidson County Schools","C - 59","C","59","NotMet","58.5","41","35.94786072","-80.11968994"
"Ledford Senior High","Davidson County Schools","B - 80","B","80","Exceeded","68.4","30","35.96213913","-80.13356018"
"Midway Elementary","Davidson County Schools","B - 73","B","73","Exceeded","68.4","44","35.95178223","-80.21425629"
"Midway Elementary","Sampson County Schools","B - 73","B","73","Exceeded","68.7","65","35.95178223","-80.21425629"
"North Davidson High","Davidson County Schools","B - 78","B","78","Exceeded","69.5","29","35.92383519","-80.24472266"
"North Davidson Middle","Davidson County Schools","C - 64","C","64","Met","62.3","38","35.92666894","-80.24482727"
"Oak Grove Middle","Davidson County Schools","C - 69","C","69","Met","65.5","35","35.94230270","-80.16471100"
"Pilot Elementary","Davidson County Schools","C - 65","C","65","Exceeded","59.7","56","35.87892100","-80.13393400"
"Pilot Elementary","Guilford County Schools","C - 56","C","56","Met","51.3","57","35.87892100","-80.13393400"
"Reeds Elementary","Davidson County Schools","C - 64","C","64","Met","61.5","53","35.84265518","-80.33249664"
"Silver Valley Elementary","Davidson County Schools","D - 51","D","51","Met","43.0","78","35.73243812","-80.10155909"
"South Davidson High","Davidson County Schools","C - 61","C","61","NotMet","46.6","51","35.67292404","-80.10427094"
"Southwood Elementary","Davidson County Schools","C - 56","C","56","Met","49.4","69","35.73278680","-80.26575588"
"Southwood Elementary","Lenoir County Public Schools","C - 57","C","57","Met","51.9","49","35.73278680","-80.26575588"
"South Davidson Middle","Davidson County Schools","C - 61","C","61","Exceeded","54.4","61","35.67432337","-80.10051101"
"Tyro Elementary","Davidson County Schools","C - 67","C","67","Met","62.7","61","35.79132080","-80.32076263"
"Tyro Middle","Davidson County Schools","C - 57","C","57","Met","53.7","51","35.80550015","-80.37237033"
"Wallburg Elementary","Davidson County Schools","B - 78","B","78","Exceeded","73.7","35","36.00835037","-80.14087677"
"Welcome Elementary","Davidson County Schools","C - 59","C","59","NotMet","56.1","52","35.90314484","-80.25833130"
"West Davidson High","Davidson County Schools","C - 66","C","66","NotMet","57.4","44","35.80482490","-80.36931261"
"Yadkin Valley Regional Career Academy","Davidson County Schools","C - 61","C","61","NotMet","57.9","55","35.81747818","-80.18868256"
"Charles England Elementary School","Lexington City Schools","C - 58","C","58","Met","51.8","85","35.81683350","-80.23918152"
"Lexington Middle School","Lexington City Schools","D - 47","D","47","Met","40.1","87","35.83092481","-80.24654388"
"Lexington Senior High","Lexington City Schools","C - 61","C","61","Met","37.1","78","35.83257906","-80.25009379"
"Pickett Elementary School","Lexington City Schools","C - 61","C","61","Met","58.4","93","35.84517136","-80.26407011"
"South Lexington School","Lexington City Schools","I - NA","I","","NA","NA","92","35.79764061","-80.26243061"
"South Lexington Development Center","Lexington City Schools","NA - NA","N","","NA","73.2","58","35.79709008","-80.26234210"
"Southwest Elementary School","Lexington City Schools","C - 66","C","66","Met","61.8","91","35.81749700","-80.27976200"
"Liberty Drive Elementary","Thomasville City Schools","D - 52","D","52","Met","47.3","92","35.87865800","-80.06453700"
"Thomasville Primary","Thomasville City Schools","C - 55","C","55","Met","48.8","94","35.87623978","-80.05990601"
"Thomasville Middle","Thomasville City Schools","D - 45","D","45","NotMet","41.5","90","35.89976100","-80.07937600"
"Thomasville High","Thomasville City Schools","C - 60","C","60","Met","39.4","83","35.90051651","-80.07572174"
"Eastern NC School for the Deaf","Deaf and Blind Schools","NA - NA","N","","NA","24.2","NA","35.70515737","-77.92057849"
"Gov. Morehead School for the Blind","Deaf and Blind Schools","NA - NA","N","","NA","35.6","NA","35.78066625","-78.66027944"
"NC School for the Deaf","Deaf and Blind Schools","NA - NA","N","","NA","13.0","NA","35.72545600","-81.69290100"
"Central Davie Academy","Davie County Schools","NA - NA","N","","NA","25.0","89","35.90588853","-80.55246189"
"Cooleemee Elementary","Davie County Schools","C - 63","C","63","Exceeded","56.4","82","35.81494555","-80.55224732"
"Cornatzer Elementary","Davie County Schools","C - 69","C","69","Met","65.6","65","35.89713669","-80.49358368"
"Davie County High","Davie County Schools","C - 69","C","69","NotMet","59.8","43","35.87285995","-80.55196381"
"Davie County Early College High","Davie County Schools","A - 92","A","92","Met","92.7","44","35.87091000","-80.55364200"
"Mocksville Elementary","Davie County Schools","C - 65","C","65","Met","63.0","60","35.90750800","-80.55824200"
"North Davie Middle","Davie County Schools","C - 69","C","69","Met","64.7","43","35.96691513","-80.53535461"
"Pinebrook Elementary","Davie County Schools","B - 70","B","70","Met","69.5","41","35.97082901","-80.51807404"
"Shady Grove Elementary","Davie County Schools","C - 65","C","65","NotMet","66.3","20","35.94685300","-80.41623600"
"South Davie Middle","Davie County Schools","C - 58","C","58","NotMet","58.3","60","35.88377975","-80.56871474"
"William R Davie Elementary","Davie County Schools","C - 63","C","63","Met","59.8","59","35.88377975","-80.56871474"
"William Ellis Middle","Davie County Schools","B - 72","B","72","Exceeded","68.4","30","35.93012238","-80.40586090"
"B F Grady Elementary","Duplin County Schools","D - 49","D","49","Exceeded","39.6","85","35.05693800","-77.83003900"
"Beulaville Elementary","Duplin County Schools","C - 58","C","58","Exceeded","50.4","65","34.91887283","-77.76406097"
"Charity Middle","Duplin County Schools","D - 51","D","51","Exceeded","42.3","76","34.82760620","-77.96963501"
"Chinquapin Elementary","Duplin County Schools","C - 64","C","64","Met","58.9","62","34.82463837","-77.81471252"
"Warsaw Elementary","Duplin County Schools","D - 44","D","44","Exceeded","33.8","93","34.99736400","-78.07856700"
"Duplin Early College High","Duplin County Schools","B - 78","B","78","Met","62.4","71","34.94656295","-77.97878981"
"E E Smith Middle","Duplin County Schools","D - 40","D","40","NotMet","33.4","76","34.95804280","-77.97425151"
"East Duplin High","Duplin County Schools","C - 58","C","58","NotMet","42.8","57","34.94100571","-77.78279114"
"James Kenan High","Duplin County Schools","D - 52","D","52","Met","30.0","73","35.53934479","-79.18541718"
"Kenansville Elementary","Duplin County Schools","C - 63","C","63","Exceeded","55.1","80","34.95618000","-77.95941900"
"North Duplin Elementary","Duplin County Schools","C - 63","C","63","Exceeded","56.0","77","35.53934479","-79.18541718"
"North Duplin Jr Sr High","Duplin County Schools","D - 54","D","54","NotMet","47.5","60","35.13500200","-78.08612000"
"Rose Hill-Magnolia Elementary","Duplin County Schools","D - 46","D","46","Exceeded","35.1","95","34.85034180","-78.02056122"
"Wallace Elementary","Duplin County Schools","D - 49","D","49","NotMet","44.1","78","34.73594382","-77.97763981"
"Wallace-Rose Hill High","Duplin County Schools","C - 55","C","55","NotMet","37.3","64","34.77218246","-77.99998474"
"Warsaw Middle","Duplin County Schools","D - 42","D","42","Exceeded","31.7","90","34.77218246","-77.99998474"
"Bethesda Elementary","Durham Public Schools","D - 45","D","45","Met","38.7","81","35.94200514","-78.83868322"
"Brogden Middle","Durham Public Schools","D - 44","D","44","Exceeded","33.2","73","36.02552310","-78.90800893"
"Brogden Middle","Wayne County Public Schools","F - 35","F","35","Met","24.8","100","36.02552310","-78.90800893"
"Burton Elementary","Durham Public Schools","D - 52","D","52","Exceeded","41.6","87","35.97857285","-78.88746643"
"J D Clement Early College HS","Durham Public Schools","A+ - 92","A","92","Exceeded","87.5","58","35.53934479","-79.18541718"
"Eastway Elementary","Durham Public Schools","F - 33","F","33","Met","21.6","100","35.99123383","-78.88471985"
"C E Jordan High","Durham Public Schools","C - 68","C","68","Exceeded","51.0","40","35.92368600","-78.96362300"
"Easley Elementary","Durham Public Schools","C - 64","C","64","NotMet","63.0","27","36.07527542","-78.92663574"
"The School for Creative Studies","Durham Public Schools","C - 55","C","55","Met","48.3","53","36.07218170","-78.82298279"
"Eno Valley Elementary","Durham Public Schools","F - 37","F","37","Met","27.9","83","36.08536911","-78.91379547"
"George L Carrington Middle","Durham Public Schools","D - 52","D","52","Exceeded","42.4","62","36.08649826","-78.91844177"
"City of Medicine Academy","Durham Public Schools","A+ - 85","A","85","Exceeded","72.9","56","36.03882015","-78.90261166"
"Club Boulevard Elementary","Durham Public Schools","D - 53","D","53","Met","45.8","60","36.01900482","-78.89839172"
"Creekside Elementary","Craven County Schools","B - 73","B","73","Exceeded","69.6","28","35.92734100","-78.99346900"
"Creekside Elementary","Durham Public Schools","C - 66","C","66","Met","62.6","44","35.92734100","-78.99346900"
"Creekside Elementary","Pitt County Schools","C - 57","C","57","Exceeded","49.3","50","35.92734100","-78.99346900"
"Glenn Elementary","Durham Public Schools","F - 39","F","39","Met","29.4","93","36.02949905","-78.83748627"
"Durham's Performance Learning Center","Durham Public Schools","NA - NA","N","","NA","13.0","67","35.98960800","-78.87950800"
"Durham School of the Arts","Durham Public Schools","B - 81","B","81","Exceeded","72.3","39","36.00281525","-78.90722656"
"Hillandale Elementary","Durham Public Schools","C - 58","C","58","Met","53.8","57","36.05248600","-78.93266200"
"Hillandale Elementary","Henderson County Schools","C - 69","C","69","Exceeded","63.2","68","36.05248600","-78.93266200"
"Hillside High","Durham Public Schools","C - 65","C","65","Exceeded","39.5","65","35.95231757","-78.90507795"
"Hope Valley Elementary","Durham Public Schools","C - 59","C","59","Exceeded","50.5","63","35.96773289","-78.93984407"
"Holt Elementary","Durham Public Schools","D - 53","D","53","Exceeded","43.9","88","36.05649900","-78.90782900"
"Holton Career and Resource Center","Durham Public Schools","I - NA","I","","NA","NA","NA","35.98960800","-78.87950800"
"Forest View Elementary","Durham Public Schools","C - 69","C","69","Exceeded","63.3","61","35.98869324","-78.99134827"
"DPS Hospital School","Durham Public Schools","F - 0","F","0","NA","<5","33","35.53934479","-79.18541718"
"James E Shepard Middle","Durham Public Schools","D - 43","D","43","Met","35.9","73","35.96628500","-78.90076400"
"Lakewood Elementary","Durham Public Schools","F - 38","F","38","Met","29.5","100","35.98271900","-78.93575200"
"Little River Elementary","Durham Public Schools","C - 65","C","65","NotMet","66.1","39","36.09869003","-78.86341858"
"Lakeview School","Durham Public Schools","NA - NA","N","","NA","<5","100","36.03704834","-78.87841797"
"Lakewood Montessori Middle","Durham Public Schools","C - 68","C","68","Exceeded","62.4","48","35.98418000","-78.92804700"
"Lucas Middle","Durham Public Schools","D - 47","D","47","NotMet","43.4","64","36.10905457","-78.88645935"
"Fayetteville Street Elementary","Durham Public Schools","D - 43","D","43","Met","33.1","100","35.96409900","-78.90539500"
"Lowe's Grove Middle","Durham Public Schools","F - 34","F","34","NotMet","27.9","78","35.90428100","-78.89122000"
"George Watts Elementary","Durham Public Schools","C - 60","C","60","Met","56.5","48","36.00817800","-78.91012500"
"Mangum Elementary","Durham Public Schools","B - 73","B","73","NotMet","74.4","26","36.17063522","-78.87692261"
"Merrick-Moore Elementary","Durham Public Schools","F - 30","F","30","NotMet","20.5","90","36.00587463","-78.85253143"
"Middle College HS @ DTCC","Durham Public Schools","A - 86","A","86","Exceeded","53.8","52","35.97538300","-78.88069100"
"Morehead Montessori","Durham Public Schools","C - 69","C","69","Met","65.3","40","35.98819700","-78.91375700"
"Neal Middle","Durham Public Schools","F - 34","F","34","NotMet","26.8","84","35.97848511","-78.78290558"
"Northern High","Durham Public Schools","C - 57","C","57","Met","36.6","59","36.09273529","-78.91237640"
"Oak Grove Elementary","Durham Public Schools","D - 51","D","51","Met","44.5","76","35.97994600","-78.81945800"
"Oak Grove Elementary","Wake County Schools","B - 81","B","81","Met","80.5","17","35.97994600","-78.81945800"
"Parkwood Elementary","Durham Public Schools","D - 54","D","54","Exceeded","45.0","71","35.89143372","-78.90569305"
"Parkwood Elementary","Onslow County Schools","D - 54","D","54","NotMet","52.8","41","35.89143372","-78.90569305"
"E K Powe Elementary","Durham Public Schools","D - 49","D","49","Met","41.9","64","36.01294708","-78.92248535"
"Pearsontown Elementary","Durham Public Schools","B - 75","B","75","Met","75.0","31","35.93195300","-78.90785200"
"Riverside High","Durham Public Schools","C - 58","C","58","NotMet","40.8","52","36.06549454","-78.94322205"
"Riverside High","Martin County Schools","C - 58","C","58","NotMet","43.3","38","36.06549454","-78.94322205"
"Sherwood Githens Middle","Durham Public Schools","D - 42","D","42","NotMet","35.8","69","35.98843002","-78.92532349"
"R N Harris Elementary","Durham Public Schools","C - 56","C","56","Met","49.4","89","35.97035217","-78.88377380"
"Southern School of Energy and Sustainabi","Durham Public Schools","D - 44","D","44","NotMet","23.9","73","35.99888900","-78.82695700"
"Sandy Ridge Elementary","Durham Public Schools","D - 43","D","43","NotMet","38.3","58","36.05729200","-78.87153600"
"Sandy Ridge Elementary","Stokes County Schools","C - 65","C","65","Met","59.5","60","36.05729200","-78.87153600"
"Sandy Ridge Elementary","Union County Public Schools","B - 83","B","83","Met","83.4","3","36.05729200","-78.87153600"
"Rogers-Herr Middle","Durham Public Schools","C - 67","C","67","Exceeded","62.3","45","35.97327501","-78.93331759"
"Southwest Elementary","Durham Public Schools","D - 51","D","51","Met","43.7","63","35.92855835","-78.92396545"
"Southwest Elementary","Forsyth County Schools","C - 69","C","69","NotMet","71.6","46","35.92855835","-78.92396545"
"Southwest Elementary","Guilford County Schools","B - 80","B","80","Exceeded","78.5","22","35.92855835","-78.92396545"
"Southwest Elementary","Hickory City Schools","D - 41","D","41","Met","32.0","96","35.92855835","-78.92396545"
"Southwest Elementary","Onslow County Schools","C - 64","C","64","Met","61.8","51","35.92855835","-78.92396545"
"C C Spaulding Elementary","Durham Public Schools","F - 38","F","38","Met","27.7","100","35.97773743","-78.90558624"
"Spring Valley Elementary","Durham Public Schools","C - 56","C","56","Met","50.2","65","35.95597800","-78.81529900"
"W G Pearson Elementary","Durham Public Schools","F - 33","F","33","Met","23.2","88","35.95609200","-78.90435000"
"Y E Smith Elementary","Durham Public Schools","F - 35","F","35","Met","23.1","100","35.98546982","-78.87285614"
"Hillside New Tech High","Durham Public Schools","C - 68","C","68","Exceeded","45.9","55","35.95231757","-78.90507795"
"Maureen Joy Charter School","Charter Schools","C - 64","C","64","Exceeded","55.2","88","35.98509200","-78.87694500"
"Healthy Start Academy","Charter Schools","F - 39","F","39","Met","28.3","98","35.99650574","-78.91357422"
"Carter Community Charter","Charter Schools","D - 47","D","47","Exceeded","36.0","81","35.98138809","-78.95516968"
"Kestrel Heights School","Charter Schools","C - 67","C","67","Exceeded","60.3","9","35.89831900","-78.89044900"
"Research Triangle Charter","Charter Schools","C - 62","C","62","Exceeded","53.2","61","35.93654200","-78.85071500"
"Central Park School For Child","Charter Schools","B - 71","B","71","NotMet","72.3","14","36.00466156","-78.90096283"
"Voyager Academy","Charter Schools","B - 71","B","71","Met","66.8","10","36.04590200","-78.89591900"
"Global Scholars Academy","Charter Schools","F - 39","F","39","Met","30.5","100","36.00057602","-78.89285278"
"Research Triangle High School","Charter Schools","B - 76","B","76","Met","73.9","20","35.53934479","-79.18541718"
"The Institute Development Young Leaders","Charter Schools","D - 47","D","47","Exceeded","36.9","72","36.01633835","-78.91389465"
"Reaching All Minds Academy","Charter Schools","F - 23","F","23","NotMet","12.5","94","35.98906700","-78.85189000"
"G W Bulluck Elementary","Edgecombe County Public School","C - 57","C","57","Exceeded","49.3","58","35.88370514","-77.71983337"
"G W Carver Elementary","Edgecombe County Public School","D - 54","D","54","Exceeded","44.4","52","35.78880742","-77.63008721"
"Coker-Wimberly Elementary","Edgecombe County Public School","F - 39","F","39","Met","27.4","64","35.97690964","-77.60421753"
"Edgecombe Early College High","Edgecombe County Public School","A - 92","A","92","Exceeded","90.7","19","35.87801300","-77.56940400"
"North Edgecombe High","Edgecombe County Public School","D - 51","D","51","Met","21.6","61","35.98957825","-77.58393860"
"Phillips Middle","Chapel Hill-Carrboro Schools","B - 76","B","76","NotMet","78.2","26","36.00167465","-77.68596649"
"Phillips Middle","Edgecombe County Public School","F - 26","F","26","NotMet","16.0","57","36.00167465","-77.68596649"
"Princeville Elementary","Edgecombe County Public School","F - 33","F","33","Met","23.2","75","35.88650131","-77.52551270"
"South Edgecombe Middle","Edgecombe County Public School","D - 51","D","51","Exceeded","41.5","50","35.77769000","-77.64373000"
"W A Pattillo Middle","Edgecombe County Public School","F - 36","F","36","Exceeded","22.5","67","35.90292700","-77.52384900"
"West Edgecombe Middle","Edgecombe County Public School","D - 40","D","40","NotMet","33.6","58","35.90418625","-77.73463440"
"SouthWest Edgecombe High","Edgecombe County Public School","C - 56","C","56","Met","33.5","48","35.83665466","-77.65789795"
"Stocks Elementary","Edgecombe County Public School","F - 30","F","30","NotMet","21.8","81","35.91483638","-77.53940441"
"Tarboro High","Edgecombe County Public School","C - 55","C","55","Met","22.1","50","35.90242767","-77.55859375"
